name,rating,reviews,latitude,longitude,url,category,location
Kebangkitan Nasional Museum,4.7,1.0,-6.178692,106.8380024,https://www.google.com/maps/place/Kebangkitan+Nasional+Museum/data=!4m7!3m6!1s0x2e69f434569482cb:0xf63185f968d128ab!8m2!3d-6.178692!4d106.8380024!16s%2Fm%2F04drtbj!19sChIJy4KUVjT0aS4RqyjRaPmFMfY,Sejarah & Budaya,Jakarta Pusat
Kebangkitan Nasional Museum,4.7,1.0,-6.178692,106.8380024,https://www.google.com/maps/place/Kebangkitan+Nasional+Museum/data=!4m7!3m6!1s0x2e69f434569482cb:0xf63185f968d128ab!8m2!3d-6.178692!4d106.8380024!16s%2Fm%2F04drtbj!19sChIJy4KUVjT0aS4RqyjRaPmFMfY,Sejarah & Budaya,Jakarta Selatan
Kebangkitan Nasional Museum,4.7,1.0,-6.178692,106.8380024,https://www.google.com/maps/place/Kebangkitan+Nasional+Museum/data=!4m7!3m6!1s0x2e69f434569482cb:0xf63185f968d128ab!8m2!3d-6.178692!4d106.8380024!16s%2Fm%2F04drtbj!19sChIJy4KUVjT0aS4RqyjRaPmFMfY,Sejarah & Budaya,Jakarta Timur
Masjid Agung Al-Munada Darussalam Baiturrahman (Masjid Perahu),4.7,545.0,-6.2235459,106.845931,https://www.google.com/maps/place/Masjid+Agung+Al-Munada+Darussalam+Baiturrahman+%28Masjid+Perahu%29/data=!4m7!3m6!1s0x2e69f38c6e51be31:0xd77f74c6cc0d0fc6!8m2!3d-6.2235459!4d106.845931!16s%2Fg%2F11cp74jnvv!19sChIJMb5RbozzaS4Rxg8NzMZ0f9c,Sejarah & Budaya,Jakarta Barat
Museum Sumpah Pemuda,4.7,1297.0,-6.1838388,106.8430507,https://www.google.com/maps/place/Museum+Sumpah+Pemuda/data=!4m7!3m6!1s0x2e69f448497eae29:0x6f890df278af3c65!8m2!3d-6.1838388!4d106.8430507!16s%2Fg%2F120qwcwd!19sChIJKa5-SUj0aS4RZTyvePINiW8,Sejarah & Budaya,Jakarta Timur
Museum Sumpah Pemuda,4.7,1297.0,-6.1838388,106.8430507,https://www.google.com/maps/place/Museum+Sumpah+Pemuda/data=!4m7!3m6!1s0x2e69f448497eae29:0x6f890df278af3c65!8m2!3d-6.1838388!4d106.8430507!16s%2Fg%2F120qwcwd!19sChIJKa5-SUj0aS4RZTyvePINiW8,Sejarah & Budaya,Jakarta Selatan
Museum Sumpah Pemuda,4.7,1297.0,-6.1838388,106.8430507,https://www.google.com/maps/place/Museum+Sumpah+Pemuda/data=!4m7!3m6!1s0x2e69f448497eae29:0x6f890df278af3c65!8m2!3d-6.1838388!4d106.8430507!16s%2Fg%2F120qwcwd!19sChIJKa5-SUj0aS4RZTyvePINiW8,Sejarah & Budaya,Jakarta Pusat
Antara Gallery of Photo Journalism,4.5,172.0,-6.1654855,106.8340188,https://www.google.com/maps/place/Antara+Gallery+of+Photo+Journalism/data=!4m7!3m6!1s0x2e69f5cf64ddae31:0xcafb10be4cdaf3c8!8m2!3d-6.1654855!4d106.8340188!16s%2Fg%2F1s0547pjv!19sChIJMa7dZM_1aS4RyPPaTL4Q-8o,Sejarah & Budaya,Jakarta Barat
Antara Gallery of Photo Journalism,4.5,172.0,-6.1654855,106.8340188,https://www.google.com/maps/place/Antara+Gallery+of+Photo+Journalism/data=!4m7!3m6!1s0x2e69f5cf64ddae31:0xcafb10be4cdaf3c8!8m2!3d-6.1654855!4d106.8340188!16s%2Fg%2F1s0547pjv!19sChIJMa7dZM_1aS4RyPPaTL4Q-8o,Sejarah & Budaya,Jakarta Pusat
Museum Layang-layang Indonesia,4.6,1939.0,-6.3079652,106.790621,https://www.google.com/maps/place/Museum+Layang-layang+Indonesia/data=!4m7!3m6!1s0x2e69ee2000d43c8f:0xb04581a01e99f973!8m2!3d-6.3079652!4d106.790621!16s%2Fg%2F1q5gpjkvb!19sChIJjzzUACDuaS4Rc_mZHqCBRbA,Sejarah & Budaya,Jakarta Selatan
Church of Santa Maria de Fatima,4.8,1455.0,-6.1438293,106.8119456,https://www.google.com/maps/place/Church+of+Santa+Maria+de+Fatima/data=!4m7!3m6!1s0x2e69f60680474f17:0xf88b1ece986ecf95!8m2!3d-6.1438293!4d106.8119456!16s%2Fg%2F1269nn2pg!19sChIJF09HgAb2aS4Rlc9umM4ei_g,Sejarah & Budaya,Jakarta Barat
Rumah Fatmawati Soekarno,4.9,25.0,-6.234017,106.8029558,https://www.google.com/maps/place/Rumah+Fatmawati+Soekarno/data=!4m7!3m6!1s0x2e69f143f37e75e5:0x1b3e711367a2edc4!8m2!3d-6.234017!4d106.8029558!16s%2Fg%2F11s5nj7tk_!19sChIJ5XV-80PxaS4RxO2iZxNxPhs,Sejarah & Budaya,Jakarta Timur
Rumah Kolonial Belanda,4.2,5.0,-6.1842539,106.843166,https://www.google.com/maps/place/Rumah+Kolonial+Belanda/data=!4m7!3m6!1s0x2e69f5b9e866e431:0xbc2378cd85d77537!8m2!3d-6.1842539!4d106.843166!16s%2Fg%2F11sq217bgj!19sChIJMeRm6Ln1aS4RN3XXhc14I7w,Sejarah & Budaya,Jakarta Pusat
Masjid Agung Al-Munada Darussalam Baiturrahman (Masjid Perahu),4.7,545.0,-6.2235459,106.845931,https://www.google.com/maps/place/Masjid+Agung+Al-Munada+Darussalam+Baiturrahman+%28Masjid+Perahu%29/data=!4m7!3m6!1s0x2e69f38c6e51be31:0xd77f74c6cc0d0fc6!8m2!3d-6.2235459!4d106.845931!16s%2Fg%2F11cp74jnvv!19sChIJMb5RbozzaS4Rxg8NzMZ0f9c,Sejarah & Budaya,Jakarta Selatan
Rumah Fatmawati Soekarno,4.9,25.0,-6.234017,106.8029558,https://www.google.com/maps/place/Rumah+Fatmawati+Soekarno/data=!4m7!3m6!1s0x2e69f143f37e75e5:0x1b3e711367a2edc4!8m2!3d-6.234017!4d106.8029558!16s%2Fg%2F11s5nj7tk_!19sChIJ5XV-80PxaS4RxO2iZxNxPhs,Sejarah & Budaya,Jakarta Selatan
Langgar Tinggi,4.6,318.0,-6.1416008,106.8058563,https://www.google.com/maps/place/Langgar+Tinggi/data=!4m7!3m6!1s0x2e69f61b5462d161:0x2be353229897b742!8m2!3d-6.1416008!4d106.8058563!16s%2Fg%2F11f08nsp9l!19sChIJYdFiVBv2aS4RQreXmCJT4ys,Sejarah & Budaya,Jakarta Barat
Information Museum,4.7,761.0,-6.299318,106.8934026,https://www.google.com/maps/place/Information+Museum/data=!4m7!3m6!1s0x2e69ed5ee602052d:0xddffe1d57a24b3f!8m2!3d-6.299318!4d106.8934026!16s%2Fg%2F1pv5vmg2g!19sChIJLQUC5l7taS4RP0uiVx3-3w0,Sejarah & Budaya,Jakarta Timur
Antara Gallery of Photo Journalism,4.5,172.0,-6.1654855,106.8340188,https://www.google.com/maps/place/Antara+Gallery+of+Photo+Journalism/data=!4m7!3m6!1s0x2e69f5cf64ddae31:0xcafb10be4cdaf3c8!8m2!3d-6.1654855!4d106.8340188!16s%2Fg%2F1s0547pjv!19sChIJMa7dZM_1aS4RyPPaTL4Q-8o,Sejarah & Budaya,Jakarta Selatan
"Museum "" Rumah Kolonial "" Arsip Nasional",4.8,64.0,-6.153808,106.816843,https://www.google.com/maps/place/Museum+%22+Rumah+Kolonial+%22+Arsip+Nasional/data=!4m7!3m6!1s0x2e69f7a0730eb953:0xa81568e2e7f58162!8m2!3d-6.153808!4d106.816843!16s%2Fg%2F11jg5mtsl2!19sChIJU7kOc6D3aS4RYoH15-JoFag,Sejarah & Budaya,Jakarta Pusat
"Museum "" Rumah Kolonial "" Arsip Nasional",4.8,64.0,-6.153808,106.816843,https://www.google.com/maps/place/Museum+%22+Rumah+Kolonial+%22+Arsip+Nasional/data=!4m7!3m6!1s0x2e69f7a0730eb953:0xa81568e2e7f58162!8m2!3d-6.153808!4d106.816843!16s%2Fg%2F11jg5mtsl2!19sChIJU7kOc6D3aS4RYoH15-JoFag,Sejarah & Budaya,Jakarta Barat
Museum DPR RI,4.5,32.0,-6.210306,106.7997213,https://www.google.com/maps/place/Museum+DPR+RI/data=!4m7!3m6!1s0x2e69f78e29c1ad95:0x1d68da9cf80732f3!8m2!3d-6.210306!4d106.7997213!16s%2Fg%2F11g3xy1r52!19sChIJla3BKY73aS4R8zIH-JzaaB0,Sejarah & Budaya,Jakarta Selatan
Electricity and Renewable Energy Museum,4.7,1318.0,-6.303353,106.9049733,https://www.google.com/maps/place/Electricity+and+Renewable+Energy+Museum/data=!4m7!3m6!1s0x2e69ed5110790809:0x8e9980292a3ca002!8m2!3d-6.303353!4d106.9049733!16s%2Fg%2F1vgx31br!19sChIJCQh5EFHtaS4RAqA8KimAmY4,Sejarah & Budaya,Jakarta Timur
Rumah MT Haryono,4.8,41.0,-6.1986337,106.8479974,https://www.google.com/maps/place/Rumah+MT+Haryono/data=!4m7!3m6!1s0x2e69f5281c70da13:0x2dc238533a0a61ac!8m2!3d-6.1986337!4d106.8479974!16s%2Fg%2F11fm_9fy78!19sChIJE9pwHCj1aS4RrGEKOlM4wi0,Sejarah & Budaya,Jakarta Pusat
Gedung Singa,4.3,36.0,-6.1363262,106.8114253,https://www.google.com/maps/place/Gedung+Singa/data=!4m7!3m6!1s0x2e69f602041188a1:0xdec4e9cd8d246dfd!8m2!3d-6.1363262!4d106.8114253!16s%2Fg%2F11c7t6_bps!19sChIJoYgRBAL2aS4R_W0kjc3pxN4,Sejarah & Budaya,Jakarta Barat
Museum DPR RI,4.5,32.0,-6.210306,106.7997213,https://www.google.com/maps/place/Museum+DPR+RI/data=!4m7!3m6!1s0x2e69f78e29c1ad95:0x1d68da9cf80732f3!8m2!3d-6.210306!4d106.7997213!16s%2Fg%2F11g3xy1r52!19sChIJla3BKY73aS4R8zIH-JzaaB0,Sejarah & Budaya,Jakarta Pusat
Museum DPR RI,4.5,32.0,-6.210306,106.7997213,https://www.google.com/maps/place/Museum+DPR+RI/data=!4m7!3m6!1s0x2e69f78e29c1ad95:0x1d68da9cf80732f3!8m2!3d-6.210306!4d106.7997213!16s%2Fg%2F11g3xy1r52!19sChIJla3BKY73aS4R8zIH-JzaaB0,Sejarah & Budaya,Jakarta Barat
Taman Mini Indonesia Indah,4.6,173725.0,-6.3044926,106.8893388,https://www.google.com/maps/place/Taman+Mini+Indonesia+Indah/data=!4m7!3m6!1s0x2e69ed50d076a261:0x73127b9ecf2da0c!8m2!3d-6.3044926!4d106.8893388!16zL20vMDhiaHFr!19sChIJYaJ20FDtaS4RDNry7LknMQc,Sejarah & Budaya,Jakarta Timur
Taman Mini Indonesia Indah,4.6,173725.0,-6.3044926,106.8893388,https://www.google.com/maps/place/Taman+Mini+Indonesia+Indah/data=!4m7!3m6!1s0x2e69ed50d076a261:0x73127b9ecf2da0c!8m2!3d-6.3044926!4d106.8893388!16zL20vMDhiaHFr!19sChIJYaJ20FDtaS4RDNry7LknMQc,Sejarah & Budaya,Jakarta Selatan
Museum Kehutanan Manggala Wanabakti,4.5,213.0,-6.2069864,106.7985992,https://www.google.com/maps/place/Museum+Kehutanan+Manggala+Wanabakti/data=!4m7!3m6!1s0x2e69f6b98d80d1e7:0x2222df68c55f20e3!8m2!3d-6.2069864!4d106.7985992!16s%2Fg%2F1tfthmr4!19sChIJ59GAjbn2aS4R4yBfxWjfIiI,Sejarah & Budaya,Jakarta Pusat
Museum Polri,4.6,827.0,-6.2394477,106.8027635,https://www.google.com/maps/place/Museum+Polri/data=!4m7!3m6!1s0x2e69f169ec7f39a5:0xdb4f3d819bd716bd!8m2!3d-6.2394477!4d106.8027635!16s%2Fg%2F12nvp8h49!19sChIJpTl_7GnxaS4RvRbXm4E9T9s,Sejarah & Budaya,Jakarta Barat
Museum Polri,4.6,827.0,-6.2394477,106.8027635,https://www.google.com/maps/place/Museum+Polri/data=!4m7!3m6!1s0x2e69f169ec7f39a5:0xdb4f3d819bd716bd!8m2!3d-6.2394477!4d106.8027635!16s%2Fg%2F12nvp8h49!19sChIJpTl_7GnxaS4RvRbXm4E9T9s,Sejarah & Budaya,Jakarta Selatan
Taman Akuarium Air Tawar TMII,4.5,3477.0,-6.3057291,106.8948934,https://www.google.com/maps/place/Taman+Akuarium+Air+Tawar+TMII/data=!4m7!3m6!1s0x2e69ed5bde31edff:0xaeb9e1ea2a91f0ff!8m2!3d-6.3057291!4d106.8948934!16s%2Fg%2F1tk0szzs!19sChIJ_-0x3lvtaS4R__CRKurhua4,Sejarah & Budaya,Jakarta Timur
Museum Kehutanan Manggala Wanabakti,4.5,213.0,-6.2069864,106.7985992,https://www.google.com/maps/place/Museum+Kehutanan+Manggala+Wanabakti/data=!4m7!3m6!1s0x2e69f6b98d80d1e7:0x2222df68c55f20e3!8m2!3d-6.2069864!4d106.7985992!16s%2Fg%2F1tfthmr4!19sChIJ59GAjbn2aS4R4yBfxWjfIiI,Sejarah & Budaya,Jakarta Selatan
Monas Dancing Fountain,4.7,3096.0,-6.1753073,106.8250914,https://www.google.com/maps/place/Monas+Dancing+Fountain/data=!4m7!3m6!1s0x2e69f5d35dbb5cdb:0x94dcdf9cd758a4a0!8m2!3d-6.1753073!4d106.8250914!16s%2Fg%2F11fy4jqbnb!19sChIJ21y7XdP1aS4RoKRY15zf3JQ,Sejarah & Budaya,Jakarta Pusat
Museum Sejarah Jakarta,4.5,205.0,-6.13393,106.81209,https://www.google.com/maps/place/Museum+Sejarah+Jakarta/data=!4m7!3m6!1s0x2e6a1dff2cfb4d7b:0xd7c679760a35d450!8m2!3d-6.13393!4d106.81209!16s%2Fg%2F11bc8lmtwh!19sChIJe037LP8dai4RUNQ1CnZ5xtc,Sejarah & Budaya,Jakarta Barat
KRATON MAJAPAHIT JAKARTA,4.6,606.0,-6.3074993,106.8935654,https://www.google.com/maps/place/KRATON+MAJAPAHIT+JAKARTA/data=!4m7!3m6!1s0x2e69ed435111f3cb:0xa4687d065dc20a16!8m2!3d-6.3074993!4d106.8935654!16s%2Fg%2F11f1vnyq01!19sChIJy_MRUUPtaS4RFgrCXQZ9aKQ,Sejarah & Budaya,Jakarta Timur
Museum Kehutanan Manggala Wanabakti,4.5,213.0,-6.2069864,106.7985992,https://www.google.com/maps/place/Museum+Kehutanan+Manggala+Wanabakti/data=!4m7!3m6!1s0x2e69f6b98d80d1e7:0x2222df68c55f20e3!8m2!3d-6.2069864!4d106.7985992!16s%2Fg%2F1tfthmr4!19sChIJ59GAjbn2aS4R4yBfxWjfIiI,Sejarah & Budaya,Jakarta Barat
"Museum Hakka Indonesia, Taman Mini Indonesia Indah",4.7,239.0,-6.3051779,106.9039675,"https://www.google.com/maps/place/Museum+Hakka+Indonesia,+Taman+Mini+Indonesia+Indah/data=!4m7!3m6!1s0x2e69ed51c9aa8f09:0xf83d9d1112de8709!8m2!3d-6.3051779!4d106.9039675!16s%2Fg%2F11c1x1vy4t!19sChIJCY-qyVHtaS4RCYfeEhGdPfg",Sejarah & Budaya,Jakarta Selatan
"BARTELE GALLERY - Jakarta, Indonesia",4.6,31.0,-6.1952147,106.8220298,"https://www.google.com/maps/place/BARTELE+GALLERY+-+Jakarta,+Indonesia/data=!4m7!3m6!1s0x2e69f421f62e0ae7:0xf6e75d56c3aa87dd!8m2!3d-6.1952147!4d106.8220298!16s%2Fg%2F11g8vvwd0l!19sChIJ5wou9iH0aS4R3Yeqw1Zd5_Y",Sejarah & Budaya,Jakarta Pusat
Museum Keprajuritan Indonesia,4.3,1176.0,-6.3056638,106.8967708,https://www.google.com/maps/place/Museum+Keprajuritan+Indonesia/data=!4m7!3m6!1s0x2e69f4724ba0f387:0x4eeb2f29ea329304!8m2!3d-6.3056638!4d106.8967708!16s%2Fg%2F120sd660!19sChIJh_OgS3L0aS4RBJMy6ikv604,Sejarah & Budaya,Jakarta Timur
Cattleya City Park,4.5,6640.0,-6.1819063,106.7944073,https://www.google.com/maps/place/Cattleya+City+Park/data=!4m7!3m6!1s0x2e69f68b3ee6be5d:0x9557708125db83f6!8m2!3d-6.1819063!4d106.7944073!16s%2Fg%2F11b7kkt0f2!19sChIJXb7mPov2aS4R9oPbJYFwV5U,Sejarah & Budaya,Jakarta Barat
"BARTELE GALLERY - Jakarta, Indonesia",4.6,31.0,-6.1952147,106.8220298,"https://www.google.com/maps/place/BARTELE+GALLERY+-+Jakarta,+Indonesia/data=!4m7!3m6!1s0x2e69f421f62e0ae7:0xf6e75d56c3aa87dd!8m2!3d-6.1952147!4d106.8220298!16s%2Fg%2F11g8vvwd0l!19sChIJ5wou9iH0aS4R3Yeqw1Zd5_Y",Sejarah & Budaya,Jakarta Selatan
National Gallery of Indonesia,4.7,10696.0,-6.1782951,106.8325683,https://www.google.com/maps/place/National+Gallery+of+Indonesia/data=!4m7!3m6!1s0x2e69f432fb0c95a5:0x5a9cae96473931a8!8m2!3d-6.1782951!4d106.8325683!16s%2Fm%2F0qfpbqv!19sChIJpZUM-zL0aS4RqDE5R5aunFo,Sejarah & Budaya,Jakarta Pusat
Jahit,4.2,471.0,-6.1172803,106.8088648,https://www.google.com/maps/place/Jahit/data=!4m7!3m6!1s0x2e6a1de7adc60bd3:0x883196c9164a9a82!8m2!3d-6.1172803!4d106.8088648!16s%2Fg%2F11fx81r5x3!19sChIJ0wvGrecdai4RgppKFsmWMYg,Sejarah & Budaya,Jakarta Barat
Museum Tionghoa,4.6,54.0,-6.3043736,106.9025975,https://www.google.com/maps/place/Museum+Tionghoa/data=!4m7!3m6!1s0x2e69ed4ed7fb6d39:0x9f134736ad27217f!8m2!3d-6.3043736!4d106.9025975!16s%2Fg%2F11c2pkpsdd!19sChIJOW37107taS4RfyEnrTZHE58,Sejarah & Budaya,Jakarta Timur
"Museum Hakka Indonesia, Taman Mini Indonesia Indah",4.7,239.0,-6.3051779,106.9039675,"https://www.google.com/maps/place/Museum+Hakka+Indonesia,+Taman+Mini+Indonesia+Indah/data=!4m7!3m6!1s0x2e69ed51c9aa8f09:0xf83d9d1112de8709!8m2!3d-6.3051779!4d106.9039675!16s%2Fg%2F11c1x1vy4t!19sChIJCY-qyVHtaS4RCYfeEhGdPfg",Sejarah & Budaya,Jakarta Timur
National Gallery of Indonesia,4.7,10696.0,-6.1782951,106.8325683,https://www.google.com/maps/place/National+Gallery+of+Indonesia/data=!4m7!3m6!1s0x2e69f432fb0c95a5:0x5a9cae96473931a8!8m2!3d-6.1782951!4d106.8325683!16s%2Fm%2F0qfpbqv!19sChIJpZUM-zL0aS4RqDE5R5aunFo,Sejarah & Budaya,Jakarta Selatan
"BARTELE GALLERY - Jakarta, Indonesia",4.6,31.0,-6.1952147,106.8220298,"https://www.google.com/maps/place/BARTELE+GALLERY+-+Jakarta,+Indonesia/data=!4m7!3m6!1s0x2e69f421f62e0ae7:0xf6e75d56c3aa87dd!8m2!3d-6.1952147!4d106.8220298!16s%2Fg%2F11g8vvwd0l!19sChIJ5wou9iH0aS4R3Yeqw1Zd5_Y",Sejarah & Budaya,Jakarta Barat
Prince Diponegoro Monument,4.6,81.0,-6.2002027,106.8323422,https://www.google.com/maps/place/Prince+Diponegoro+Monument/data=!4m7!3m6!1s0x2e69f4171e23e607:0x590ca17101894225!8m2!3d-6.2002027!4d106.8323422!16s%2Fg%2F11d_bhdjfr!19sChIJB-YjHhf0aS4RJUKJAXGhDFk,Sejarah & Budaya,Jakarta Pusat
Parks Agro Tourism Cilangkap,4.3,1360.0,-6.3399618,106.901405,https://www.google.com/maps/place/Parks+Agro+Tourism+Cilangkap/data=!4m7!3m6!1s0x2e69ecd777995d99:0xb192c7fabc8d9932!8m2!3d-6.3399618!4d106.901405!16s%2Fg%2F11d_z8my2_!19sChIJmV2Zd9fsaS4RMpmNvPrHkrE,Sejarah & Budaya,Jakarta Timur
Prince Diponegoro Monument,4.6,81.0,-6.2002027,106.8323422,https://www.google.com/maps/place/Prince+Diponegoro+Monument/data=!4m7!3m6!1s0x2e69f4171e23e607:0x590ca17101894225!8m2!3d-6.2002027!4d106.8323422!16s%2Fg%2F11d_bhdjfr!19sChIJB-YjHhf0aS4RJUKJAXGhDFk,Sejarah & Budaya,Jakarta Selatan
Prince Diponegoro Monument,4.6,81.0,-6.2002027,106.8323422,https://www.google.com/maps/place/Prince+Diponegoro+Monument/data=!4m7!3m6!1s0x2e69f4171e23e607:0x590ca17101894225!8m2!3d-6.2002027!4d106.8323422!16s%2Fg%2F11d_bhdjfr!19sChIJB-YjHhf0aS4RJUKJAXGhDFk,Sejarah & Budaya,Jakarta Barat
Jembatan Kota Intan,4.4,1917.0,-6.1312362,106.8105526,https://www.google.com/maps/place/Jembatan+Kota+Intan/data=!4m7!3m6!1s0x2e6a1df9609fa091:0xebe202d2c666bf21!8m2!3d-6.1312362!4d106.8105526!16s%2Fg%2F11cmh5vrbw!19sChIJkaCfYPkdai4RIb9mxtIC4us,Sejarah & Budaya,Jakarta Pusat
Museum Asmat TMII,4.4,37.0,-6.3056271,106.8936866,https://www.google.com/maps/place/Museum+Asmat+TMII/data=!4m7!3m6!1s0x2e69ed5c9839d749:0x90baae1fdf4f320a!8m2!3d-6.3056271!4d106.8936866!16s%2Fg%2F11csq0l6pd!19sChIJSdc5mFztaS4RCjJP3x-uupA,Sejarah & Budaya,Jakarta Timur
Air Mancur Waduk Grogol,4.4,308.0,-6.1579669,106.7936004,https://www.google.com/maps/place/Air+Mancur+Waduk+Grogol/data=!4m7!3m6!1s0x2e69f640144dd7f5:0xd928103c593c08b3!8m2!3d-6.1579669!4d106.7936004!16s%2Fg%2F11ddzhthb9!19sChIJ9ddNFED2aS4Rswg8WTwQKNk,Sejarah & Budaya,Jakarta Barat
Jembatan Kota Intan,4.4,1917.0,-6.1312362,106.8105526,https://www.google.com/maps/place/Jembatan+Kota+Intan/data=!4m7!3m6!1s0x2e6a1df9609fa091:0xebe202d2c666bf21!8m2!3d-6.1312362!4d106.8105526!16s%2Fg%2F11cmh5vrbw!19sChIJkaCfYPkdai4RIb9mxtIC4us,Sejarah & Budaya,Jakarta Selatan
Grand General Dr. A. H. Nasution Memorial Museum,4.8,1232.0,-6.1929612,106.8326645,https://www.google.com/maps/place/Grand+General+Dr.+A.+H.+Nasution+Memorial+Museum/data=!4m7!3m6!1s0x2e69f43c5ee263f3:0x5fc0960b834ecf52!8m2!3d-6.1929612!4d106.8326645!16s%2Fm%2F0cnzlth!19sChIJ82PiXjz0aS4RUs9OgwuWwF8,Sejarah & Budaya,Jakarta Pusat
Museum Pancasila Sakti,4.6,34.0,-6.2910536,106.9073109,https://www.google.com/maps/place/Museum+Pancasila+Sakti/data=!4m7!3m6!1s0x2e69f3d74b523293:0x8cf7fc0276b53f0e!8m2!3d-6.2910536!4d106.9073109!16s%2Fg%2F11vr4f5gh2!19sChIJkzJSS9fzaS4RDj-1dgL894w,Sejarah & Budaya,Jakarta Timur
Grand General Dr. A. H. Nasution Memorial Museum,4.8,1232.0,-6.1929612,106.8326645,https://www.google.com/maps/place/Grand+General+Dr.+A.+H.+Nasution+Memorial+Museum/data=!4m7!3m6!1s0x2e69f43c5ee263f3:0x5fc0960b834ecf52!8m2!3d-6.1929612!4d106.8326645!16s%2Fm%2F0cnzlth!19sChIJ82PiXjz0aS4RUs9OgwuWwF8,Sejarah & Budaya,Jakarta Barat
Grand General Dr. A. H. Nasution Memorial Museum,4.8,1232.0,-6.1929612,106.8326645,https://www.google.com/maps/place/Grand+General+Dr.+A.+H.+Nasution+Memorial+Museum/data=!4m7!3m6!1s0x2e69f43c5ee263f3:0x5fc0960b834ecf52!8m2!3d-6.1929612!4d106.8326645!16s%2Fm%2F0cnzlth!19sChIJ82PiXjz0aS4RUs9OgwuWwF8,Sejarah & Budaya,Jakarta Selatan
Masjid Cut Meutia,4.8,11913.0,-6.1872687,106.8333041,https://www.google.com/maps/place/Masjid+Cut+Meutia/data=!4m7!3m6!1s0x2e69f43a42499683:0x1f8ba3d1a48c4817!8m2!3d-6.1872687!4d106.8333041!16s%2Fm%2F0cnxydh!19sChIJg5ZJQjr0aS4RF0iMpNGjix8,Sejarah & Budaya,Jakarta Pusat
Taman Budaya Tionghoa,4.6,628.0,-6.3039002,106.9029141,https://www.google.com/maps/place/Taman+Budaya+Tionghoa/data=!4m7!3m6!1s0x2e69ed50fc89ac4f:0x32dcbfe374fc7909!8m2!3d-6.3039002!4d106.9029141!16s%2Fg%2F11bw4cs_fd!19sChIJT6yJ_FDtaS4RCXn8dOO_3DI,Sejarah & Budaya,Jakarta Timur
TUGU HARMONI - JAKARTA,4.6,279.0,-6.167496,106.8210906,https://www.google.com/maps/place/TUGU+HARMONI+-+JAKARTA/data=!4m7!3m6!1s0x2e69f5d775260dab:0xed0eddce26971ead!8m2!3d-6.167496!4d106.8210906!16s%2Fg%2F11c5s_ffpx!19sChIJqw0mddf1aS4RrR6XJs7dDu0,Sejarah & Budaya,Jakarta Barat
TUGU HARMONI - JAKARTA,4.6,279.0,-6.167496,106.8210906,https://www.google.com/maps/place/TUGU+HARMONI+-+JAKARTA/data=!4m7!3m6!1s0x2e69f5d775260dab:0xed0eddce26971ead!8m2!3d-6.167496!4d106.8210906!16s%2Fg%2F11c5s_ffpx!19sChIJqw0mddf1aS4RrR6XJs7dDu0,Sejarah & Budaya,Jakarta Selatan
TUGU HARMONI - JAKARTA,4.6,279.0,-6.167496,106.8210906,https://www.google.com/maps/place/TUGU+HARMONI+-+JAKARTA/data=!4m7!3m6!1s0x2e69f5d775260dab:0xed0eddce26971ead!8m2!3d-6.167496!4d106.8210906!16s%2Fg%2F11c5s_ffpx!19sChIJqw0mddf1aS4RrR6XJs7dDu0,Sejarah & Budaya,Jakarta Pusat
Sumur Maut Lubang Buaya,4.8,96.0,-6.2906544,106.9086258,https://www.google.com/maps/place/Sumur+Maut+Lubang+Buaya/data=!4m7!3m6!1s0x2e69f3d4e4c5154f:0xef905b860e1c8665!8m2!3d-6.2906544!4d106.9086258!16s%2Fg%2F11v19r1r31!19sChIJTxXF5NTzaS4RZYYcDoZbkO8,Sejarah & Budaya,Jakarta Timur
Museum Taman Prasasti,4.6,1963.0,-6.172452,106.8197689,https://www.google.com/maps/place/Museum+Taman+Prasasti/data=!4m7!3m6!1s0x2e69f5d5d956ed99:0x90970858c9aba297!8m2!3d-6.172452!4d106.8197689!16s%2Fm%2F0b777jc!19sChIJme1W2dX1aS4Rl6KryVgIl5A,Sejarah & Budaya,Jakarta Barat
Monumen Fidget Spinner,5.0,26.0,-6.2640758,106.7968689,https://www.google.com/maps/place/Monumen+Fidget+Spinner/data=!4m7!3m6!1s0x2e69f1c045b88a75:0x9b88508aa6b24009!8m2!3d-6.2640758!4d106.7968689!16s%2Fg%2F11pdk09cb4!19sChIJdYq4RcDxaS4RCUCypopQiJs,Sejarah & Budaya,Jakarta Selatan
National Gallery of Indonesia,4.7,10696.0,-6.1782951,106.8325683,https://www.google.com/maps/place/National+Gallery+of+Indonesia/data=!4m7!3m6!1s0x2e69f432fb0c95a5:0x5a9cae96473931a8!8m2!3d-6.1782951!4d106.8325683!16s%2Fm%2F0qfpbqv!19sChIJpZUM-zL0aS4RqDE5R5aunFo,Sejarah & Budaya,Jakarta Timur
Museum Taman Prasasti,4.6,1963.0,-6.172452,106.8197689,https://www.google.com/maps/place/Museum+Taman+Prasasti/data=!4m7!3m6!1s0x2e69f5d5d956ed99:0x90970858c9aba297!8m2!3d-6.172452!4d106.8197689!16s%2Fm%2F0b777jc!19sChIJme1W2dX1aS4Rl6KryVgIl5A,Sejarah & Budaya,Jakarta Selatan
Graha Bhakti Budaya,4.6,909.0,-6.1890898,106.8399614,https://www.google.com/maps/place/Graha+Bhakti+Budaya/data=!4m7!3m6!1s0x2e69f438f2f99989:0x4fbaf603c965fb51!8m2!3d-6.1890898!4d106.8399614!16s%2Fg%2F1yh802jw0!19sChIJiZn58jj0aS4RUftlyQP2uk8,Sejarah & Budaya,Jakarta Pusat
Prince Diponegoro Monument,4.6,81.0,-6.2002027,106.8323422,https://www.google.com/maps/place/Prince+Diponegoro+Monument/data=!4m7!3m6!1s0x2e69f4171e23e607:0x590ca17101894225!8m2!3d-6.2002027!4d106.8323422!16s%2Fg%2F11d_bhdjfr!19sChIJB-YjHhf0aS4RJUKJAXGhDFk,Sejarah & Budaya,Jakarta Timur
Wayang Museum,4.5,5110.0,-6.1349287,106.8123108,https://www.google.com/maps/place/Wayang+Museum/data=!4m7!3m6!1s0x2e6a1dff48f259ff:0xfeb6bfd7e15db853!8m2!3d-6.1349287!4d106.8123108!16s%2Fm%2F09v3972!19sChIJ_1nySP8dai4RU7hd4de_tv4,Sejarah & Budaya,Jakarta Barat
Jembatan Kota Intan,4.4,1917.0,-6.1312362,106.8105526,https://www.google.com/maps/place/Jembatan+Kota+Intan/data=!4m7!3m6!1s0x2e6a1df9609fa091:0xebe202d2c666bf21!8m2!3d-6.1312362!4d106.8105526!16s%2Fg%2F11cmh5vrbw!19sChIJkaCfYPkdai4RIb9mxtIC4us,Sejarah & Budaya,Jakarta Timur
Taman Benyamin Sueb (Gedung Eks Kodim),4.7,303.0,-6.2155728,106.8719829,https://www.google.com/maps/place/Taman+Benyamin+Sueb+%28Gedung+Eks+Kodim%29/data=!4m7!3m6!1s0x2e69f37df603fbe3:0x84d01cb42147b551!8m2!3d-6.2155728!4d106.8719829!16s%2Fg%2F11c486yjtg!19sChIJ4_sD9n3zaS4RUbVHIbQc0IQ,Sejarah & Budaya,Jakarta Pusat
Jakarta Maritime Museum,4.5,3453.0,-6.1267804,106.8081425,https://www.google.com/maps/place/Jakarta+Maritime+Museum/data=!4m7!3m6!1s0x2e69f5e451849b79:0x9decbe492b2ded46!8m2!3d-6.1267804!4d106.8081425!16s%2Fm%2F09v54ky!19sChIJeZuEUeT1aS4RRu0tK0m-7J0,Sejarah & Budaya,Jakarta Selatan
Jakarta Maritime Museum,4.5,3453.0,-6.1267804,106.8081425,https://www.google.com/maps/place/Jakarta+Maritime+Museum/data=!4m7!3m6!1s0x2e69f5e451849b79:0x9decbe492b2ded46!8m2!3d-6.1267804!4d106.8081425!16s%2Fm%2F09v54ky!19sChIJeZuEUeT1aS4RRu0tK0m-7J0,Sejarah & Budaya,Jakarta Barat
Museum Taman Prasasti,4.6,1963.0,-6.172452,106.8197689,https://www.google.com/maps/place/Museum+Taman+Prasasti/data=!4m7!3m6!1s0x2e69f5d5d956ed99:0x90970858c9aba297!8m2!3d-6.172452!4d106.8197689!16s%2Fm%2F0b777jc!19sChIJme1W2dX1aS4Rl6KryVgIl5A,Sejarah & Budaya,Jakarta Pusat
Cagar Buah Condet,4.5,90.0,-6.2870643,106.8504208,https://www.google.com/maps/place/Cagar+Buah+Condet/data=!4m7!3m6!1s0x2e69f26fd8a72d69:0x2a7dccf89b1ffba5!8m2!3d-6.2870643!4d106.8504208!16s%2Fg%2F11hc_0cx13!19sChIJaS2n2G_yaS4Rpfsfm_jMfSo,Sejarah & Budaya,Jakarta Timur
Jakarta Maritime Museum,4.5,3453.0,-6.1267804,106.8081425,https://www.google.com/maps/place/Jakarta+Maritime+Museum/data=!4m7!3m6!1s0x2e69f5e451849b79:0x9decbe492b2ded46!8m2!3d-6.1267804!4d106.8081425!16s%2Fm%2F09v54ky!19sChIJeZuEUeT1aS4RRu0tK0m-7J0,Sejarah & Budaya,Jakarta Pusat
Grand General Dr. A. H. Nasution Memorial Museum,4.8,1232.0,-6.1929612,106.8326645,https://www.google.com/maps/place/Grand+General+Dr.+A.+H.+Nasution+Memorial+Museum/data=!4m7!3m6!1s0x2e69f43c5ee263f3:0x5fc0960b834ecf52!8m2!3d-6.1929612!4d106.8326645!16s%2Fm%2F0cnzlth!19sChIJ82PiXjz0aS4RUs9OgwuWwF8,Sejarah & Budaya,Jakarta Timur
TUGU HARMONI - JAKARTA,4.6,279.0,-6.167496,106.8210906,https://www.google.com/maps/place/TUGU+HARMONI+-+JAKARTA/data=!4m7!3m6!1s0x2e69f5d775260dab:0xed0eddce26971ead!8m2!3d-6.167496!4d106.8210906!16s%2Fg%2F11c5s_ffpx!19sChIJqw0mddf1aS4RrR6XJs7dDu0,Sejarah & Budaya,Jakarta Timur
Monumen Perjuangan Jatinegara,4.6,156.0,-6.2134333,106.8615159,https://www.google.com/maps/place/Monumen+Perjuangan+Jatinegara/data=!4m7!3m6!1s0x2e69f47efd0b42d7:0x7c15b4668cf26098!8m2!3d-6.2134333!4d106.8615159!16s%2Fg%2F11c0p_wy4q!19sChIJ10IL_X70aS4RmGDyjGa0FXw,Sejarah & Budaya,Jakarta Selatan
Museum BNI (Bank Negara Indonesia 1946),4.7,31.0,-6.1361762,106.815027,https://www.google.com/maps/place/Museum+BNI+%28Bank+Negara+Indonesia+1946%29/data=!4m7!3m6!1s0x2e6a1dff7d09fe27:0xd34a7725786bbf4f!8m2!3d-6.1361762!4d106.815027!16s%2Fg%2F11g68zjm2p!19sChIJJ_4Jff8dai4RT79reCV3StM,Sejarah & Budaya,Jakarta Barat
Makam Nyonya Kompi,4.7,10.0,-6.1665184,106.8694553,https://www.google.com/maps/place/Makam+Nyonya+Kompi/data=!4m7!3m6!1s0x2e69f5609fca29f7:0x882e880ce2e14193!8m2!3d-6.1665184!4d106.8694553!16s%2Fg%2F11lrp4rflb!19sChIJ9ynKn2D1aS4Rk0Hh4gyILog,Sejarah & Budaya,Jakarta Pusat
Museum Graha Widya Patra,4.5,22.0,-6.3019901,106.9052008,https://www.google.com/maps/place/Museum+Graha+Widya+Patra/data=!4m7!3m6!1s0x2e69ed515b13581d:0xd0a248e186f77ed!8m2!3d-6.3019901!4d106.9052008!16s%2Fg%2F122tc1mr!19sChIJHVgTW1HtaS4R7XdvGI4kCg0,Sejarah & Budaya,Jakarta Timur
Gedung Candra Naya,4.6,927.0,-6.1473838,106.8151338,https://www.google.com/maps/place/Gedung+Candra+Naya/data=!4m7!3m6!1s0x2e69f6086774201f:0x6cf9dd9e365ae9c8!8m2!3d-6.1473838!4d106.8151338!16s%2Fg%2F11c1p58hxk!19sChIJHyB0Zwj2aS4RyOlaNp7d-Ww,Sejarah & Budaya,Jakarta Barat
Bentara Budaya Jakarta,4.6,2585.0,-6.2102742,106.7955008,https://www.google.com/maps/place/Bentara+Budaya+Jakarta/data=!4m7!3m6!1s0x2e69f6b6378d1f63:0xb16842e1965bea93!8m2!3d-6.2102742!4d106.7955008!16s%2Fm%2F01296625!19sChIJYx-NN7b2aS4Rk-pbluFCaLE,Sejarah & Budaya,Jakarta Selatan
Taman Benyamin Sueb (Gedung Eks Kodim),4.7,303.0,-6.2155728,106.8719829,https://www.google.com/maps/place/Taman+Benyamin+Sueb+%28Gedung+Eks+Kodim%29/data=!4m7!3m6!1s0x2e69f37df603fbe3:0x84d01cb42147b551!8m2!3d-6.2155728!4d106.8719829!16s%2Fg%2F11c486yjtg!19sChIJ4_sD9n3zaS4RUbVHIbQc0IQ,Sejarah & Budaya,Jakarta Timur
Bentara Budaya Jakarta,4.6,2585.0,-6.2102742,106.7955008,https://www.google.com/maps/place/Bentara+Budaya+Jakarta/data=!4m7!3m6!1s0x2e69f6b6378d1f63:0xb16842e1965bea93!8m2!3d-6.2102742!4d106.7955008!16s%2Fm%2F01296625!19sChIJYx-NN7b2aS4Rk-pbluFCaLE,Sejarah & Budaya,Jakarta Pusat
Bentara Budaya Jakarta,4.6,2585.0,-6.2102742,106.7955008,https://www.google.com/maps/place/Bentara+Budaya+Jakarta/data=!4m7!3m6!1s0x2e69f6b6378d1f63:0xb16842e1965bea93!8m2!3d-6.2102742!4d106.7955008!16s%2Fm%2F01296625!19sChIJYx-NN7b2aS4Rk-pbluFCaLE,Sejarah & Budaya,Jakarta Barat
Museum Taman Prasasti,4.6,1963.0,-6.172452,106.8197689,https://www.google.com/maps/place/Museum+Taman+Prasasti/data=!4m7!3m6!1s0x2e69f5d5d956ed99:0x90970858c9aba297!8m2!3d-6.172452!4d106.8197689!16s%2Fm%2F0b777jc!19sChIJme1W2dX1aS4Rl6KryVgIl5A,Sejarah & Budaya,Jakarta Timur
Gedung Candra Naya,4.6,927.0,-6.1473838,106.8151338,https://www.google.com/maps/place/Gedung+Candra+Naya/data=!4m7!3m6!1s0x2e69f6086774201f:0x6cf9dd9e365ae9c8!8m2!3d-6.1473838!4d106.8151338!16s%2Fg%2F11c1p58hxk!19sChIJHyB0Zwj2aS4RyOlaNp7d-Ww,Sejarah & Budaya,Jakarta Selatan
Gedung Candra Naya,4.6,927.0,-6.1473838,106.8151338,https://www.google.com/maps/place/Gedung+Candra+Naya/data=!4m7!3m6!1s0x2e69f6086774201f:0x6cf9dd9e365ae9c8!8m2!3d-6.1473838!4d106.8151338!16s%2Fg%2F11c1p58hxk!19sChIJHyB0Zwj2aS4RyOlaNp7d-Ww,Sejarah & Budaya,Jakarta Pusat
MOJA Museum,4.5,2470.0,-6.2175929,106.8031745,https://www.google.com/maps/place/MOJA+Museum/data=!4m7!3m6!1s0x2e69f164a95e665d:0xc3c0973316bd0c5c!8m2!3d-6.2175929!4d106.8031745!16s%2Fg%2F11gk4yrmdj!19sChIJXWZeqWTxaS4RXAy9FjOXwMM,Sejarah & Budaya,Jakarta Barat
MOJA Museum,4.5,2470.0,-6.2175929,106.8031745,https://www.google.com/maps/place/MOJA+Museum/data=!4m7!3m6!1s0x2e69f164a95e665d:0xc3c0973316bd0c5c!8m2!3d-6.2175929!4d106.8031745!16s%2Fg%2F11gk4yrmdj!19sChIJXWZeqWTxaS4RXAy9FjOXwMM,Sejarah & Budaya,Jakarta Pusat
Monumen Perjuangan Jatinegara,4.6,156.0,-6.2134333,106.8615159,https://www.google.com/maps/place/Monumen+Perjuangan+Jatinegara/data=!4m7!3m6!1s0x2e69f47efd0b42d7:0x7c15b4668cf26098!8m2!3d-6.2134333!4d106.8615159!16s%2Fg%2F11c0p_wy4q!19sChIJ10IL_X70aS4RmGDyjGa0FXw,Sejarah & Budaya,Jakarta Barat
Museum Betawi,4.8,628.0,-6.3384153,106.8250603,https://www.google.com/maps/place/Museum+Betawi/data=!4m7!3m6!1s0x2e69eda86c01ea57:0xbcda506bbca5c21a!8m2!3d-6.3384153!4d106.8250603!16s%2Fg%2F11h39_dhcb!19sChIJV-oBbKjtaS4RGsKlvGtQ2rw,Sejarah & Budaya,Jakarta Selatan
Museum Transportasi,4.5,2679.0,-6.3049123,106.8989307,https://www.google.com/maps/place/Museum+Transportasi/data=!4m7!3m6!1s0x2e69ed5a5d9e3a75:0x5911a81319597b14!8m2!3d-6.3049123!4d106.8989307!16s%2Fg%2F12hl12rfv!19sChIJdTqeXVrtaS4RFHtZGROoEVk,Sejarah & Budaya,Jakarta Timur
Jakarta Maritime Museum,4.5,3453.0,-6.1267804,106.8081425,https://www.google.com/maps/place/Jakarta+Maritime+Museum/data=!4m7!3m6!1s0x2e69f5e451849b79:0x9decbe492b2ded46!8m2!3d-6.1267804!4d106.8081425!16s%2Fm%2F09v54ky!19sChIJeZuEUeT1aS4RRu0tK0m-7J0,Sejarah & Budaya,Jakarta Timur
Monumen Perjuangan Jatinegara,4.6,156.0,-6.2134333,106.8615159,https://www.google.com/maps/place/Monumen+Perjuangan+Jatinegara/data=!4m7!3m6!1s0x2e69f47efd0b42d7:0x7c15b4668cf26098!8m2!3d-6.2134333!4d106.8615159!16s%2Fg%2F11c0p_wy4q!19sChIJ10IL_X70aS4RmGDyjGa0FXw,Sejarah & Budaya,Jakarta Timur
Museum Bank Indonesia,4.7,11347.0,-6.1371066,106.8129846,https://www.google.com/maps/place/Museum+Bank+Indonesia/data=!4m7!3m6!1s0x2e69f601eb6b390f:0x6dd4776b240168a3!8m2!3d-6.1371066!4d106.8129846!16s%2Fg%2F112yfv12s!19sChIJDzlr6wH2aS4Ro2gBJGt31G0,Sejarah & Budaya,Jakarta Pusat
Bentara Budaya Jakarta,4.6,2585.0,-6.2102742,106.7955008,https://www.google.com/maps/place/Bentara+Budaya+Jakarta/data=!4m7!3m6!1s0x2e69f6b6378d1f63:0xb16842e1965bea93!8m2!3d-6.2102742!4d106.7955008!16s%2Fm%2F01296625!19sChIJYx-NN7b2aS4Rk-pbluFCaLE,Sejarah & Budaya,Jakarta Timur
Museum di Tengah Kebun,4.7,324.0,-6.267513,106.824107,https://www.google.com/maps/place/Museum+di+Tengah+Kebun/data=!4m7!3m6!1s0x2e69f22f457b184b:0x84734bdfb662a1d7!8m2!3d-6.267513!4d106.824107!16s%2Fg%2F1yjg81w5c!19sChIJSxh7RS_yaS4R16Fitt9Lc4Q,Sejarah & Budaya,Jakarta Barat
Museum di Tengah Kebun,4.7,324.0,-6.267513,106.824107,https://www.google.com/maps/place/Museum+di+Tengah+Kebun/data=!4m7!3m6!1s0x2e69f22f457b184b:0x84734bdfb662a1d7!8m2!3d-6.267513!4d106.824107!16s%2Fg%2F1yjg81w5c!19sChIJSxh7RS_yaS4R16Fitt9Lc4Q,Sejarah & Budaya,Jakarta Selatan
Museum Bank Indonesia,4.7,11347.0,-6.1371066,106.8129846,https://www.google.com/maps/place/Museum+Bank+Indonesia/data=!4m7!3m6!1s0x2e69f601eb6b390f:0x6dd4776b240168a3!8m2!3d-6.1371066!4d106.8129846!16s%2Fg%2F112yfv12s!19sChIJDzlr6wH2aS4Ro2gBJGt31G0,Sejarah & Budaya,Jakarta Barat
Museum Bank Indonesia,4.7,11347.0,-6.1371066,106.8129846,https://www.google.com/maps/place/Museum+Bank+Indonesia/data=!4m7!3m6!1s0x2e69f601eb6b390f:0x6dd4776b240168a3!8m2!3d-6.1371066!4d106.8129846!16s%2Fg%2F112yfv12s!19sChIJDzlr6wH2aS4Ro2gBJGt31G0,Sejarah & Budaya,Jakarta Selatan
Museum Mandiri,4.7,2693.0,-6.1386855,106.8129104,https://www.google.com/maps/place/Museum+Mandiri/data=!4m7!3m6!1s0x2e69f601907b7e9b:0x8b5da2cbdd9a964!8m2!3d-6.1386855!4d106.8129104!16s%2Fm%2F0r4mnv1!19sChIJm357kAH2aS4RZKnZvSzatQg,Sejarah & Budaya,Jakarta Pusat
Museum Mandiri,4.7,2693.0,-6.1386855,106.8129104,https://www.google.com/maps/place/Museum+Mandiri/data=!4m7!3m6!1s0x2e69f601907b7e9b:0x8b5da2cbdd9a964!8m2!3d-6.1386855!4d106.8129104!16s%2Fm%2F0r4mnv1!19sChIJm357kAH2aS4RZKnZvSzatQg,Sejarah & Budaya,Jakarta Barat
Museum Mandiri,4.7,2693.0,-6.1386855,106.8129104,https://www.google.com/maps/place/Museum+Mandiri/data=!4m7!3m6!1s0x2e69f601907b7e9b:0x8b5da2cbdd9a964!8m2!3d-6.1386855!4d106.8129104!16s%2Fm%2F0r4mnv1!19sChIJm357kAH2aS4RZKnZvSzatQg,Sejarah & Budaya,Jakarta Selatan
Cagar Budaya Batu Penggilingan,5.0,1.0,-6.1998225,106.9315289,https://www.google.com/maps/place/Cagar+Budaya+Batu+Penggilingan/data=!4m7!3m6!1s0x2e698b11f30751ef:0x1c06d189bc386794!8m2!3d-6.1998225!4d106.9315289!16s%2Fg%2F11l203tp02!19sChIJ71EH8xGLaS4RlGc4vInRBhw,Sejarah & Budaya,Jakarta Timur
Monumen Ondel-Ondel Kemayoran,4.6,1845.0,-6.1600032,106.8517335,https://www.google.com/maps/place/Monumen+Ondel-Ondel+Kemayoran/data=!4m7!3m6!1s0x2e69f5bc9f696f35:0xe7c4db3a2934e272!8m2!3d-6.1600032!4d106.8517335!16s%2Fg%2F11cm0hhd68!19sChIJNW9pn7z1aS4RcuI0KTrbxOc,Sejarah & Budaya,Jakarta Barat
Monumen Ondel-Ondel Kemayoran,4.6,1845.0,-6.1600032,106.8517335,https://www.google.com/maps/place/Monumen+Ondel-Ondel+Kemayoran/data=!4m7!3m6!1s0x2e69f5bc9f696f35:0xe7c4db3a2934e272!8m2!3d-6.1600032!4d106.8517335!16s%2Fg%2F11cm0hhd68!19sChIJNW9pn7z1aS4RcuI0KTrbxOc,Sejarah & Budaya,Jakarta Pusat
Wisma Habibie & Ainun,4.9,144.0,-6.23068,106.8358726,https://www.google.com/maps/place/Wisma+Habibie+%26+Ainun/data=!4m7!3m6!1s0x2e69f311b82721a7:0x27ae22c4525f216a!8m2!3d-6.23068!4d106.8358726!16s%2Fg%2F11wbt8516d!19sChIJpyEnuBHzaS4RaiFfUsQiric,Sejarah & Budaya,Jakarta Selatan
Museum Pengkhianatan PKI (Komunis),4.8,2166.0,-6.2910536,106.9073109,https://www.google.com/maps/place/Museum+Pengkhianatan+PKI+%28Komunis%29/data=!4m7!3m6!1s0x2e69f2ac0900b4a1:0x440c86f5c49225cc!8m2!3d-6.2910536!4d106.9073109!16s%2Fg%2F11b7q613vt!19sChIJobQACazyaS4RzCWSxPWGDEQ,Sejarah & Budaya,Jakarta Timur
Gedung Stovia,4.7,200.0,-6.1787581,106.8379666,https://www.google.com/maps/place/Gedung+Stovia/data=!4m7!3m6!1s0x2e69f43456e0f95d:0x794f439480aea4ee!8m2!3d-6.1787581!4d106.8379666!16s%2Fg%2F1pzrm43pz!19sChIJXfngVjT0aS4R7qSugJRDT3k,Sejarah & Budaya,Jakarta Barat
Museum di Tengah Kebun,4.7,324.0,-6.267513,106.824107,https://www.google.com/maps/place/Museum+di+Tengah+Kebun/data=!4m7!3m6!1s0x2e69f22f457b184b:0x84734bdfb662a1d7!8m2!3d-6.267513!4d106.824107!16s%2Fg%2F1yjg81w5c!19sChIJSxh7RS_yaS4R16Fitt9Lc4Q,Sejarah & Budaya,Jakarta Timur
Gedung Stovia,4.7,200.0,-6.1787581,106.8379666,https://www.google.com/maps/place/Gedung+Stovia/data=!4m7!3m6!1s0x2e69f43456e0f95d:0x794f439480aea4ee!8m2!3d-6.1787581!4d106.8379666!16s%2Fg%2F1pzrm43pz!19sChIJXfngVjT0aS4R7qSugJRDT3k,Sejarah & Budaya,Jakarta Selatan
Gedung Stovia,4.7,200.0,-6.1787581,106.8379666,https://www.google.com/maps/place/Gedung+Stovia/data=!4m7!3m6!1s0x2e69f43456e0f95d:0x794f439480aea4ee!8m2!3d-6.1787581!4d106.8379666!16s%2Fg%2F1pzrm43pz!19sChIJXfngVjT0aS4R7qSugJRDT3k,Sejarah & Budaya,Jakarta Pusat
Monumen Ondel-Ondel Kemayoran,4.6,1845.0,-6.1600032,106.8517335,https://www.google.com/maps/place/Monumen+Ondel-Ondel+Kemayoran/data=!4m7!3m6!1s0x2e69f5bc9f696f35:0xe7c4db3a2934e272!8m2!3d-6.1600032!4d106.8517335!16s%2Fg%2F11cm0hhd68!19sChIJNW9pn7z1aS4RcuI0KTrbxOc,Sejarah & Budaya,Jakarta Timur
Museum Mandiri,4.7,2693.0,-6.1386855,106.8129104,https://www.google.com/maps/place/Museum+Mandiri/data=!4m7!3m6!1s0x2e69f601907b7e9b:0x8b5da2cbdd9a964!8m2!3d-6.1386855!4d106.8129104!16s%2Fm%2F0r4mnv1!19sChIJm357kAH2aS4RZKnZvSzatQg,Sejarah & Budaya,Jakarta Timur
Arjuna Wijaya Statue,4.6,10437.0,-6.1800296,106.8227781,https://www.google.com/maps/place/Arjuna+Wijaya+Statue/data=!4m7!3m6!1s0x2e69f42b928d4a61:0x56ed17c8310b69bb!8m2!3d-6.1800296!4d106.8227781!16s%2Fg%2F11b6x_swt5!19sChIJYUqNkiv0aS4Ru2kLMcgX7VY,Sejarah & Budaya,Jakarta Barat
Satriamandala Museum,4.6,8644.0,-6.2318286,106.8189439,https://www.google.com/maps/place/Satriamandala+Museum/data=!4m7!3m6!1s0x2e69f3e26d094b9f:0x729cef683bf31572!8m2!3d-6.2318286!4d106.8189439!16s%2Fm%2F0k0tdcz!19sChIJn0sJbeLzaS4RchXzO2jvnHI,Sejarah & Budaya,Jakarta Selatan
Art:1 New Museum,4.6,572.0,-6.1469658,106.8402246,https://www.google.com/maps/place/Art:1+New+Museum/data=!4m7!3m6!1s0x2e69f5ed3d26ee9b:0x8d0844836c709c58!8m2!3d-6.1469658!4d106.8402246!16s%2Fg%2F113j6_7dp!19sChIJm-4mPe31aS4RWJxwbINECI0,Sejarah & Budaya,Jakarta Pusat
Satriamandala Museum,4.6,8644.0,-6.2318286,106.8189439,https://www.google.com/maps/place/Satriamandala+Museum/data=!4m7!3m6!1s0x2e69f3e26d094b9f:0x729cef683bf31572!8m2!3d-6.2318286!4d106.8189439!16s%2Fm%2F0k0tdcz!19sChIJn0sJbeLzaS4RchXzO2jvnHI,Sejarah & Budaya,Jakarta Timur
Satriamandala Museum,4.6,8644.0,-6.2318286,106.8189439,https://www.google.com/maps/place/Satriamandala+Museum/data=!4m7!3m6!1s0x2e69f3e26d094b9f:0x729cef683bf31572!8m2!3d-6.2318286!4d106.8189439!16s%2Fm%2F0k0tdcz!19sChIJn0sJbeLzaS4RchXzO2jvnHI,Sejarah & Budaya,Jakarta Pusat
Arjuna Wijaya Statue,4.6,10437.0,-6.1800296,106.8227781,https://www.google.com/maps/place/Arjuna+Wijaya+Statue/data=!4m7!3m6!1s0x2e69f42b928d4a61:0x56ed17c8310b69bb!8m2!3d-6.1800296!4d106.8227781!16s%2Fg%2F11b6x_swt5!19sChIJYUqNkiv0aS4Ru2kLMcgX7VY,Sejarah & Budaya,Jakarta Timur
Makam Pangeran Wiraguna,4.8,29.0,-6.2786428,106.8280018,https://www.google.com/maps/place/Makam+Pangeran+Wiraguna/data=!4m7!3m6!1s0x2e69f21878fe43ff:0x9f6124e5ee24d7e4!8m2!3d-6.2786428!4d106.8280018!16s%2Fg%2F11crzjyswp!19sChIJ_0P-eBjyaS4R5Nck7uUkYZ8,Sejarah & Budaya,Jakarta Selatan
Museum of Textile,4.5,3135.0,-6.1882117,106.8097432,https://www.google.com/maps/place/Museum+of+Textile/data=!4m7!3m6!1s0x2e69f69b22a0585d:0xdc276556f2689b10!8m2!3d-6.1882117!4d106.8097432!16s%2Fm%2F09v8mnv!19sChIJXVigIpv2aS4REJto8lZlJ9w,Sejarah & Budaya,Jakarta Barat
Arjuna Wijaya Statue,4.6,10437.0,-6.1800296,106.8227781,https://www.google.com/maps/place/Arjuna+Wijaya+Statue/data=!4m7!3m6!1s0x2e69f42b928d4a61:0x56ed17c8310b69bb!8m2!3d-6.1800296!4d106.8227781!16s%2Fg%2F11b6x_swt5!19sChIJYUqNkiv0aS4Ru2kLMcgX7VY,Sejarah & Budaya,Jakarta Selatan
Istiqlal Mosque,4.8,19647.0,-6.1705717,106.8311704,https://www.google.com/maps/place/Istiqlal+Mosque/data=!4m7!3m6!1s0x2e69f5ce68b5e01d:0xcafaf042d5840c6c!8m2!3d-6.1705717!4d106.8311704!16zL20vMDRzam1q!19sChIJHeC1aM71aS4RbAyE1ULw-so,Sejarah & Budaya,Jakarta Pusat
Museum of Textile,4.5,3135.0,-6.1882117,106.8097432,https://www.google.com/maps/place/Museum+of+Textile/data=!4m7!3m6!1s0x2e69f69b22a0585d:0xdc276556f2689b10!8m2!3d-6.1882117!4d106.8097432!16s%2Fm%2F09v8mnv!19sChIJXVigIpv2aS4REJto8lZlJ9w,Sejarah & Budaya,Jakarta Selatan
Museum Cheng Ho,4.0,17.0,-6.3053072,106.903707,https://www.google.com/maps/place/Museum+Cheng+Ho/data=!4m7!3m6!1s0x2e69ed504ceec9e3:0xb17d59a395ca2175!8m2!3d-6.3053072!4d106.903707!16s%2Fg%2F11c2l1sm41!19sChIJ48nuTFDtaS4RdSHKlaNZfbE,Sejarah & Budaya,Jakarta Timur
Arjuna Wijaya Statue,4.6,10437.0,-6.1800296,106.8227781,https://www.google.com/maps/place/Arjuna+Wijaya+Statue/data=!4m7!3m6!1s0x2e69f42b928d4a61:0x56ed17c8310b69bb!8m2!3d-6.1800296!4d106.8227781!16s%2Fg%2F11b6x_swt5!19sChIJYUqNkiv0aS4Ru2kLMcgX7VY,Sejarah & Budaya,Jakarta Pusat
Museum of Textile,4.5,3135.0,-6.1882117,106.8097432,https://www.google.com/maps/place/Museum+of+Textile/data=!4m7!3m6!1s0x2e69f69b22a0585d:0xdc276556f2689b10!8m2!3d-6.1882117!4d106.8097432!16s%2Fm%2F09v8mnv!19sChIJXVigIpv2aS4REJto8lZlJ9w,Sejarah & Budaya,Jakarta Timur
Gedung Joang '45,4.6,1870.0,-6.1860641,106.8365002,https://www.google.com/maps/place/Gedung+Joang+%2745/data=!4m7!3m6!1s0x2e69f439e42506f1:0x5b47d4d83d25b9dd!8m2!3d-6.1860641!4d106.8365002!16s%2Fg%2F120yrqgp!19sChIJ8QYl5Dn0aS4R3bklPdjUR1s,Sejarah & Budaya,Jakarta Barat
Gedung Joang '45,4.6,1870.0,-6.1860641,106.8365002,https://www.google.com/maps/place/Gedung+Joang+%2745/data=!4m7!3m6!1s0x2e69f439e42506f1:0x5b47d4d83d25b9dd!8m2!3d-6.1860641!4d106.8365002!16s%2Fg%2F120yrqgp!19sChIJ8QYl5Dn0aS4R3bklPdjUR1s,Sejarah & Budaya,Jakarta Pusat
Rumah Si Pitung Situs Museum Kebaharian Jakarta,4.5,1819.0,-6.0969637,106.9588413,https://www.google.com/maps/place/Rumah+Si+Pitung+Situs+Museum+Kebaharian+Jakarta/data=!4m7!3m6!1s0x2e6a2056223ee0cd:0xd3f94174199a878d!8m2!3d-6.0969637!4d106.9588413!16s%2Fg%2F11flq7k0m7!19sChIJzeA-IlYgai4RjYeaGXRB-dM,Sejarah & Budaya,Jakarta Selatan
Rumah Si Pitung Situs Museum Kebaharian Jakarta,4.5,1819.0,-6.0969637,106.9588413,https://www.google.com/maps/place/Rumah+Si+Pitung+Situs+Museum+Kebaharian+Jakarta/data=!4m7!3m6!1s0x2e6a2056223ee0cd:0xd3f94174199a878d!8m2!3d-6.0969637!4d106.9588413!16s%2Fg%2F11flq7k0m7!19sChIJzeA-IlYgai4RjYeaGXRB-dM,Sejarah & Budaya,Jakarta Timur
Dharma Bakti Temple,4.7,2650.0,-6.1444647,106.8126422,https://www.google.com/maps/place/Dharma+Bakti+Temple/data=!4m7!3m6!1s0x2e69f606635629e7:0xd8eb61836bb8f2b5!8m2!3d-6.1444647!4d106.8126422!16s%2Fg%2F12372krs!19sChIJ5ylWYwb2aS4RtfK4a4Nh69g,Sejarah & Budaya,Jakarta Barat
National Monument,4.6,121661.0,-6.1753083,106.8271106,https://www.google.com/maps/place/National+Monument/data=!4m7!3m6!1s0x2e69f5d2e764b12d:0x3d2ad6e1e0e9bcc8!8m2!3d-6.1753083!4d106.8271106!16zL20vMDNxN2hz!19sChIJLbFk59L1aS4RyLzp4OHWKj0,Sejarah & Budaya,Jakarta Pusat
Museum Pusaka,4.6,216.0,-6.3052137,106.8958904,https://www.google.com/maps/place/Museum+Pusaka/data=!4m7!3m6!1s0x2e69ed5b6d81d0ed:0x553cd6ea615bbeb8!8m2!3d-6.3052137!4d106.8958904!16s%2Fg%2F1217cn2h!19sChIJ7dCBbVvtaS4RuL5bYerWPFU,Sejarah & Budaya,Jakarta Timur
National Monument,4.6,121661.0,-6.1753083,106.8271106,https://www.google.com/maps/place/National+Monument/data=!4m7!3m6!1s0x2e69f5d2e764b12d:0x3d2ad6e1e0e9bcc8!8m2!3d-6.1753083!4d106.8271106!16zL20vMDNxN2hz!19sChIJLbFk59L1aS4RyLzp4OHWKj0,Sejarah & Budaya,Jakarta Selatan
National Monument,4.6,121661.0,-6.1753083,106.8271106,https://www.google.com/maps/place/National+Monument/data=!4m7!3m6!1s0x2e69f5d2e764b12d:0x3d2ad6e1e0e9bcc8!8m2!3d-6.1753083!4d106.8271106!16zL20vMDNxN2hz!19sChIJLbFk59L1aS4RyLzp4OHWKj0,Sejarah & Budaya,Jakarta Barat
National Monument,4.6,121661.0,-6.1753083,106.8271106,https://www.google.com/maps/place/National+Monument/data=!4m7!3m6!1s0x2e69f5d2e764b12d:0x3d2ad6e1e0e9bcc8!8m2!3d-6.1753083!4d106.8271106!16zL20vMDNxN2hz!19sChIJLbFk59L1aS4RyLzp4OHWKj0,Sejarah & Budaya,Jakarta Timur
Sasmita Loka Ahmad Yani Museum,4.8,1040.0,-6.2045797,106.8366143,https://www.google.com/maps/place/Sasmita+Loka+Ahmad+Yani+Museum/data=!4m7!3m6!1s0x2e69f4123755eccb:0x5b8c2f700730e22c!8m2!3d-6.2045797!4d106.8366143!16s%2Fm%2F0crgqrd!19sChIJy-xVNxL0aS4RLOIwB3AvjFs,Sejarah & Budaya,Jakarta Pusat
Sasmita Loka Ahmad Yani Museum,4.8,1040.0,-6.2045797,106.8366143,https://www.google.com/maps/place/Sasmita+Loka+Ahmad+Yani+Museum/data=!4m7!3m6!1s0x2e69f4123755eccb:0x5b8c2f700730e22c!8m2!3d-6.2045797!4d106.8366143!16s%2Fm%2F0crgqrd!19sChIJy-xVNxL0aS4RLOIwB3AvjFs,Sejarah & Budaya,Jakarta Selatan
Gedung Joang '45,4.6,1870.0,-6.1860641,106.8365002,https://www.google.com/maps/place/Gedung+Joang+%2745/data=!4m7!3m6!1s0x2e69f439e42506f1:0x5b47d4d83d25b9dd!8m2!3d-6.1860641!4d106.8365002!16s%2Fg%2F120yrqgp!19sChIJ8QYl5Dn0aS4R3bklPdjUR1s,Sejarah & Budaya,Jakarta Selatan
Sasmita Loka Ahmad Yani Museum,4.8,1040.0,-6.2045797,106.8366143,https://www.google.com/maps/place/Sasmita+Loka+Ahmad+Yani+Museum/data=!4m7!3m6!1s0x2e69f4123755eccb:0x5b8c2f700730e22c!8m2!3d-6.2045797!4d106.8366143!16s%2Fm%2F0crgqrd!19sChIJy-xVNxL0aS4RLOIwB3AvjFs,Sejarah & Budaya,Jakarta Barat
Sasmita Loka Ahmad Yani Museum,4.8,1040.0,-6.2045797,106.8366143,https://www.google.com/maps/place/Sasmita+Loka+Ahmad+Yani+Museum/data=!4m7!3m6!1s0x2e69f4123755eccb:0x5b8c2f700730e22c!8m2!3d-6.2045797!4d106.8366143!16s%2Fm%2F0crgqrd!19sChIJy-xVNxL0aS4RLOIwB3AvjFs,Sejarah & Budaya,Jakarta Timur
Cathedral of Our Lady of the Assumption,4.8,14955.0,-6.1692383,106.8333758,https://www.google.com/maps/place/Cathedral+of+Our+Lady+of+the+Assumption/data=!4m7!3m6!1s0x2e69f5cef86e21ad:0x3ecfda74692fc79!8m2!3d-6.1692383!4d106.8333758!16s%2Fm%2F02r7yts!19sChIJrSFu-M71aS4RefySRqf97AM,Sejarah & Budaya,Jakarta Pusat
Museum MH. Thamrin,4.6,936.0,-6.194015,106.8456889,https://www.google.com/maps/place/Museum+MH.+Thamrin/data=!4m7!3m6!1s0x2e69f441a1426bfb:0x280b1e02323d46d0!8m2!3d-6.194015!4d106.8456889!16s%2Fg%2F1218f644!19sChIJ-2tCoUH0aS4R0EY9MgIeCyg,Sejarah & Budaya,Jakarta Barat
Menteng Park,4.5,21164.0,-6.1964087,106.8293106,https://www.google.com/maps/place/Menteng+Park/data=!4m7!3m6!1s0x2e69f422b00ee429:0xa28d5c5a0efbe12e!8m2!3d-6.1964087!4d106.8293106!16s%2Fg%2F11byz6zj8g!19sChIJKeQOsCL0aS4RLuH7DlpcjaI,Sejarah & Budaya,Jakarta Selatan
Museum MH. Thamrin,4.6,936.0,-6.194015,106.8456889,https://www.google.com/maps/place/Museum+MH.+Thamrin/data=!4m7!3m6!1s0x2e69f441a1426bfb:0x280b1e02323d46d0!8m2!3d-6.194015!4d106.8456889!16s%2Fg%2F1218f644!19sChIJ-2tCoUH0aS4R0EY9MgIeCyg,Sejarah & Budaya,Jakarta Timur
Museum MH. Thamrin,4.6,936.0,-6.194015,106.8456889,https://www.google.com/maps/place/Museum+MH.+Thamrin/data=!4m7!3m6!1s0x2e69f441a1426bfb:0x280b1e02323d46d0!8m2!3d-6.194015!4d106.8456889!16s%2Fg%2F1218f644!19sChIJ-2tCoUH0aS4R0EY9MgIeCyg,Sejarah & Budaya,Jakarta Selatan
Menteng Park,4.5,21164.0,-6.1964087,106.8293106,https://www.google.com/maps/place/Menteng+Park/data=!4m7!3m6!1s0x2e69f422b00ee429:0xa28d5c5a0efbe12e!8m2!3d-6.1964087!4d106.8293106!16s%2Fg%2F11byz6zj8g!19sChIJKeQOsCL0aS4RLuH7DlpcjaI,Sejarah & Budaya,Jakarta Pusat
Suropati Park,4.6,22210.0,-6.199387,106.8326333,https://www.google.com/maps/place/Suropati+Park/data=!4m7!3m6!1s0x2e69f416e4052ef9:0x8b3359cdbfba5a81!8m2!3d-6.199387!4d106.8326333!16s%2Fg%2F120z1syk!19sChIJ-S4F5Bb0aS4RgVq6v81ZM4s,Sejarah & Budaya,Jakarta Barat
Museum MH. Thamrin,4.6,936.0,-6.194015,106.8456889,https://www.google.com/maps/place/Museum+MH.+Thamrin/data=!4m7!3m6!1s0x2e69f441a1426bfb:0x280b1e02323d46d0!8m2!3d-6.194015!4d106.8456889!16s%2Fg%2F1218f644!19sChIJ-2tCoUH0aS4R0EY9MgIeCyg,Sejarah & Budaya,Jakarta Pusat
Bayt Al Quran dan Museum Istiqlal,4.7,1368.0,-6.3028222,106.8878626,https://www.google.com/maps/place/Bayt+Al+Quran+dan+Museum+Istiqlal/data=!4m7!3m6!1s0x2e69ed5f7e833391:0xd33772b8e0d87207!8m2!3d-6.3028222!4d106.8878626!16s%2Fg%2F1td3bvgh!19sChIJkTODfl_taS4RB3LY4LhyN9M,Sejarah & Budaya,Jakarta Timur
Monumen Pancasila Sakti,4.6,10249.0,-6.2903068,106.9086044,https://www.google.com/maps/place/Monumen+Pancasila+Sakti/data=!4m7!3m6!1s0x2e69f2a53a134995:0xf5cbecf6f5649855!8m2!3d-6.2903068!4d106.9086044!16s%2Fg%2F121bwmw8!19sChIJlUkTOqXyaS4RVZhk9fbsy_U,Sejarah & Budaya,Jakarta Selatan
Suropati Park,4.6,22210.0,-6.199387,106.8326333,https://www.google.com/maps/place/Suropati+Park/data=!4m7!3m6!1s0x2e69f416e4052ef9:0x8b3359cdbfba5a81!8m2!3d-6.199387!4d106.8326333!16s%2Fg%2F120z1syk!19sChIJ-S4F5Bb0aS4RgVq6v81ZM4s,Sejarah & Budaya,Jakarta Selatan
Taman Fatahillah,4.6,29605.0,-6.134669,106.8132041,https://www.google.com/maps/place/Taman+Fatahillah/data=!4m7!3m6!1s0x2e6a1dff3f8f5fed:0xf2536e698fceab32!8m2!3d-6.134669!4d106.8132041!16s%2Fg%2F11bvvyzv1l!19sChIJ7V-PP_8dai4RMqvOj2luU_I,Sejarah & Budaya,Jakarta Barat
Perjuangan Monument,4.5,590.0,-6.238921,107.0051224,https://www.google.com/maps/place/Perjuangan+Monument/data=!4m7!3m6!1s0x2e698c270d3db2d7:0x726593629058944f!8m2!3d-6.238921!4d107.0051224!16s%2Fg%2F11c2nn0svm!19sChIJ17I9DSeMaS4RT5RYkGKTZXI,Sejarah & Budaya,Jakarta Timur
Sky Deck Sarinah,4.8,783.0,-6.1878067,106.8236216,https://www.google.com/maps/place/Sky+Deck+Sarinah/data=!4m7!3m6!1s0x2e69f5dfdee7c23d:0x93ce6f3aea7883f3!8m2!3d-6.1878067!4d106.8236216!16s%2Fg%2F11t_j4cy5v!19sChIJPcLn3t_1aS4R84N46jpvzpM,Sejarah & Budaya,Jakarta Pusat
Monumen Pancasila Sakti,4.6,10249.0,-6.2903068,106.9086044,https://www.google.com/maps/place/Monumen+Pancasila+Sakti/data=!4m7!3m6!1s0x2e69f2a53a134995:0xf5cbecf6f5649855!8m2!3d-6.2903068!4d106.9086044!16s%2Fg%2F121bwmw8!19sChIJlUkTOqXyaS4RVZhk9fbsy_U,Sejarah & Budaya,Jakarta Timur
Rumah Si Pitung Situs Museum Kebaharian Jakarta,4.5,1819.0,-6.0969637,106.9588413,https://www.google.com/maps/place/Rumah+Si+Pitung+Situs+Museum+Kebaharian+Jakarta/data=!4m7!3m6!1s0x2e6a2056223ee0cd:0xd3f94174199a878d!8m2!3d-6.0969637!4d106.9588413!16s%2Fg%2F11flq7k0m7!19sChIJzeA-IlYgai4RjYeaGXRB-dM,Sejarah & Budaya,Jakarta Pusat
Dharma Bakti Temple,4.7,2650.0,-6.1444647,106.8126422,https://www.google.com/maps/place/Dharma+Bakti+Temple/data=!4m7!3m6!1s0x2e69f606635629e7:0xd8eb61836bb8f2b5!8m2!3d-6.1444647!4d106.8126422!16s%2Fg%2F12372krs!19sChIJ5ylWYwb2aS4RtfK4a4Nh69g,Sejarah & Budaya,Jakarta Pusat
Mausoleum OG Khouw,4.4,21.0,-6.1979206,106.8042989,https://www.google.com/maps/place/Mausoleum+OG+Khouw/data=!4m7!3m6!1s0x2e69f6bd66eb7ff7:0x9da7d7b350ec4946!8m2!3d-6.1979206!4d106.8042989!16s%2Fg%2F11c6c8r320!19sChIJ93_rZr32aS4RRknsULPXp50,Sejarah & Budaya,Jakarta Selatan
Taman Proklamator,4.7,7379.0,-6.2032463,106.846814,https://www.google.com/maps/place/Taman+Proklamator/data=!4m7!3m6!1s0x2e69f46c25499983:0x865de36846fb5edb!8m2!3d-6.2032463!4d106.846814!16s%2Fg%2F122dm0x9!19sChIJg5lJJWz0aS4R2177RmjjXYY,Sejarah & Budaya,Jakarta Barat
Suropati Park,4.6,22210.0,-6.199387,106.8326333,https://www.google.com/maps/place/Suropati+Park/data=!4m7!3m6!1s0x2e69f416e4052ef9:0x8b3359cdbfba5a81!8m2!3d-6.199387!4d106.8326333!16s%2Fg%2F120z1syk!19sChIJ-S4F5Bb0aS4RgVq6v81ZM4s,Sejarah & Budaya,Jakarta Pusat
Mausoleum OG Khouw,4.4,21.0,-6.1979206,106.8042989,https://www.google.com/maps/place/Mausoleum+OG+Khouw/data=!4m7!3m6!1s0x2e69f6bd66eb7ff7:0x9da7d7b350ec4946!8m2!3d-6.1979206!4d106.8042989!16s%2Fg%2F11c6c8r320!19sChIJ93_rZr32aS4RRknsULPXp50,Sejarah & Budaya,Jakarta Barat
Mausoleum OG Khouw,4.4,21.0,-6.1979206,106.8042989,https://www.google.com/maps/place/Mausoleum+OG+Khouw/data=!4m7!3m6!1s0x2e69f6bd66eb7ff7:0x9da7d7b350ec4946!8m2!3d-6.1979206!4d106.8042989!16s%2Fg%2F11c6c8r320!19sChIJ93_rZr32aS4RRknsULPXp50,Sejarah & Budaya,Jakarta Pusat
Museum of East Timor,4.3,46.0,-6.3032587,106.9014576,https://www.google.com/maps/place/Museum+of+East+Timor/data=!4m7!3m6!1s0x2e69ed509135e413:0xbdc1545ed00fe333!8m2!3d-6.3032587!4d106.9014576!16s%2Fg%2F120z_284!19sChIJE-Q1kVDtaS4RM-MP0F5Uwb0,Sejarah & Budaya,Jakarta Timur
Suropati Park,4.6,22210.0,-6.199387,106.8326333,https://www.google.com/maps/place/Suropati+Park/data=!4m7!3m6!1s0x2e69f416e4052ef9:0x8b3359cdbfba5a81!8m2!3d-6.199387!4d106.8326333!16s%2Fg%2F120z1syk!19sChIJ-S4F5Bb0aS4RgVq6v81ZM4s,Sejarah & Budaya,Jakarta Timur
Museum Basoeki Abdullah,4.7,1305.0,-6.2898108,106.7933218,https://www.google.com/maps/place/Museum+Basoeki+Abdullah/data=!4m7!3m6!1s0x2e69f1c2b2cfffff:0x771c0cb63c79fd9b!8m2!3d-6.2898108!4d106.7933218!16s%2Fm%2F010lr3gt!19sChIJ___PssLxaS4Rm_15PLYMHHc,Sejarah & Budaya,Jakarta Selatan
Taman Pandang Istana,4.5,2621.0,-6.1721641,106.8233829,https://www.google.com/maps/place/Taman+Pandang+Istana/data=!4m7!3m6!1s0x2e69f5d4058a4bbf:0xdf7aecafd6f46e32!8m2!3d-6.1721641!4d106.8233829!16s%2Fg%2F11cp5ddmg8!19sChIJv0uKBdT1aS4RMm701q_set8,Sejarah & Budaya,Jakarta Barat
Formulation of Proclamation Text Museum,4.7,1135.0,-6.2004272,106.8310959,https://www.google.com/maps/place/Formulation+of+Proclamation+Text+Museum/data=!4m7!3m6!1s0x2e69f41768fdc787:0xa9df214c95059cdc!8m2!3d-6.2004272!4d106.8310959!16s%2Fm%2F0vpv_ch!19sChIJh8f9aBf0aS4R3JwFlUwh36k,Sejarah & Budaya,Jakarta Pusat
Monumen Patung Dirgantara,4.5,5560.0,-6.2430801,106.8435923,https://www.google.com/maps/place/Monumen+Patung+Dirgantara/data=!4m7!3m6!1s0x2e69f3b8c45fea2f:0xb4262074ada0a439!8m2!3d-6.2430801!4d106.8435923!16s%2Fg%2F120t9thm!19sChIJL-pfxLjzaS4ROaSgrXQgJrQ,Sejarah & Budaya,Jakarta Selatan
Makom Kramat Guru Abdurahman Dan Pangeran Salim,4.6,67.0,-6.2062733,106.944739,https://www.google.com/maps/place/Makom+Kramat+Guru+Abdurahman+Dan+Pangeran+Salim/data=!4m7!3m6!1s0x2e698b7400fb73b1:0xb4fb348c394355dc!8m2!3d-6.2062733!4d106.944739!16s%2Fg%2F11hdjr9n46!19sChIJsXP7AHSLaS4R3FVDOYw0-7Q,Sejarah & Budaya,Jakarta Timur
Formulation of Proclamation Text Museum,4.7,1135.0,-6.2004272,106.8310959,https://www.google.com/maps/place/Formulation+of+Proclamation+Text+Museum/data=!4m7!3m6!1s0x2e69f41768fdc787:0xa9df214c95059cdc!8m2!3d-6.2004272!4d106.8310959!16s%2Fm%2F0vpv_ch!19sChIJh8f9aBf0aS4R3JwFlUwh36k,Sejarah & Budaya,Jakarta Selatan
Mausoleum OG Khouw,4.4,21.0,-6.1979206,106.8042989,https://www.google.com/maps/place/Mausoleum+OG+Khouw/data=!4m7!3m6!1s0x2e69f6bd66eb7ff7:0x9da7d7b350ec4946!8m2!3d-6.1979206!4d106.8042989!16s%2Fg%2F11c6c8r320!19sChIJ93_rZr32aS4RRknsULPXp50,Sejarah & Budaya,Jakarta Timur
Toko Merah,4.6,3584.0,-6.1359299,106.8112847,https://www.google.com/maps/place/Toko+Merah/data=!4m7!3m6!1s0x2e6a1df917379c0b:0x41b380b337b59118!8m2!3d-6.1359299!4d106.8112847!16s%2Fm%2F0kbj6xx!19sChIJC5w3F_kdai4RGJG1N7OAs0E,Sejarah & Budaya,Jakarta Barat
Toko Merah,4.6,3584.0,-6.1359299,106.8112847,https://www.google.com/maps/place/Toko+Merah/data=!4m7!3m6!1s0x2e6a1df917379c0b:0x41b380b337b59118!8m2!3d-6.1359299!4d106.8112847!16s%2Fm%2F0kbj6xx!19sChIJC5w3F_kdai4RGJG1N7OAs0E,Sejarah & Budaya,Jakarta Selatan
Formulation of Proclamation Text Museum,4.7,1135.0,-6.2004272,106.8310959,https://www.google.com/maps/place/Formulation+of+Proclamation+Text+Museum/data=!4m7!3m6!1s0x2e69f41768fdc787:0xa9df214c95059cdc!8m2!3d-6.2004272!4d106.8310959!16s%2Fm%2F0vpv_ch!19sChIJh8f9aBf0aS4R3JwFlUwh36k,Sejarah & Budaya,Jakarta Barat
Toko Merah,4.6,3584.0,-6.1359299,106.8112847,https://www.google.com/maps/place/Toko+Merah/data=!4m7!3m6!1s0x2e6a1df917379c0b:0x41b380b337b59118!8m2!3d-6.1359299!4d106.8112847!16s%2Fm%2F0kbj6xx!19sChIJC5w3F_kdai4RGJG1N7OAs0E,Sejarah & Budaya,Jakarta Pusat
Purna Bhakti Pertiwi Museum,4.5,729.0,-6.3003461,106.8864414,https://www.google.com/maps/place/Purna+Bhakti+Pertiwi+Museum/data=!4m7!3m6!1s0x2e69ed60e8c1ec81:0xcc2d864837e9a268!8m2!3d-6.3003461!4d106.8864414!16s%2Fm%2F0dgpwkf!19sChIJgezB6GDtaS4RaKLpN0iGLcw,Sejarah & Budaya,Jakarta Timur
Formulation of Proclamation Text Museum,4.7,1135.0,-6.2004272,106.8310959,https://www.google.com/maps/place/Formulation+of+Proclamation+Text+Museum/data=!4m7!3m6!1s0x2e69f41768fdc787:0xa9df214c95059cdc!8m2!3d-6.2004272!4d106.8310959!16s%2Fm%2F0vpv_ch!19sChIJh8f9aBf0aS4R3JwFlUwh36k,Sejarah & Budaya,Jakarta Timur
Pusat Sejarah Markas Besar TNI,4.6,117.0,-6.2314022,106.8200846,https://www.google.com/maps/place/Pusat+Sejarah+Markas+Besar+TNI/data=!4m7!3m6!1s0x2e69f3e23808adbb:0x8686b532f388d219!8m2!3d-6.2314022!4d106.8200846!16s%2Fg%2F11clyz0s39!19sChIJu60IOOLzaS4RGdKI8zK1hoY,Sejarah & Budaya,Jakarta Selatan
Pusat Sejarah Markas Besar TNI,4.6,117.0,-6.2314022,106.8200846,https://www.google.com/maps/place/Pusat+Sejarah+Markas+Besar+TNI/data=!4m7!3m6!1s0x2e69f3e23808adbb:0x8686b532f388d219!8m2!3d-6.2314022!4d106.8200846!16s%2Fg%2F11clyz0s39!19sChIJu60IOOLzaS4RGdKI8zK1hoY,Sejarah & Budaya,Jakarta Barat
Jakarta Art Building,4.6,3112.0,-6.1665685,106.8344222,https://www.google.com/maps/place/Jakarta+Art+Building/data=!4m7!3m6!1s0x2e69f5cf535796fb:0x9c8882b635d18edc!8m2!3d-6.1665685!4d106.8344222!16s%2Fm%2F0h3s27c!19sChIJ-5ZXU8_1aS4R3I7RNbaCiJw,Sejarah & Budaya,Jakarta Pusat
Pusat Sejarah Markas Besar TNI,4.6,117.0,-6.2314022,106.8200846,https://www.google.com/maps/place/Pusat+Sejarah+Markas+Besar+TNI/data=!4m7!3m6!1s0x2e69f3e23808adbb:0x8686b532f388d219!8m2!3d-6.2314022!4d106.8200846!16s%2Fg%2F11clyz0s39!19sChIJu60IOOLzaS4RGdKI8zK1hoY,Sejarah & Budaya,Jakarta Pusat
Jakarta Art Building,4.6,3112.0,-6.1665685,106.8344222,https://www.google.com/maps/place/Jakarta+Art+Building/data=!4m7!3m6!1s0x2e69f5cf535796fb:0x9c8882b635d18edc!8m2!3d-6.1665685!4d106.8344222!16s%2Fm%2F0h3s27c!19sChIJ-5ZXU8_1aS4R3I7RNbaCiJw,Sejarah & Budaya,Jakarta Selatan
Indonesia Museum,4.7,1221.0,-6.3009628,106.8914236,https://www.google.com/maps/place/Indonesia+Museum/data=!4m7!3m6!1s0x2e69ed5e7b3c0609:0x62cae8b8d989a08d!8m2!3d-6.3009628!4d106.8914236!16s%2Fm%2F09v6cmh!19sChIJCQY8e17taS4RjaCJ2bjoymI,Sejarah & Budaya,Jakarta Barat
Indonesia Museum,4.7,1221.0,-6.3009628,106.8914236,https://www.google.com/maps/place/Indonesia+Museum/data=!4m7!3m6!1s0x2e69ed5e7b3c0609:0x62cae8b8d989a08d!8m2!3d-6.3009628!4d106.8914236!16s%2Fm%2F09v6cmh!19sChIJCQY8e17taS4RjaCJ2bjoymI,Sejarah & Budaya,Jakarta Timur
Galeri Indonesia Kaya,4.8,2555.0,-6.1948499,106.8200607,https://www.google.com/maps/place/Galeri+Indonesia+Kaya/data=!4m7!3m6!1s0x2e69f420492fc27f:0x824342015eaa861a!8m2!3d-6.1948499!4d106.8200607!16s%2Fg%2F11b6_jdx2l!19sChIJf8IvSSD0aS4RGoaqXgFCQ4I,Sejarah & Budaya,Jakarta Pusat
Galeri Indonesia Kaya,4.8,2555.0,-6.1948499,106.8200607,https://www.google.com/maps/place/Galeri+Indonesia+Kaya/data=!4m7!3m6!1s0x2e69f420492fc27f:0x824342015eaa861a!8m2!3d-6.1948499!4d106.8200607!16s%2Fg%2F11b6_jdx2l!19sChIJf8IvSSD0aS4RGoaqXgFCQ4I,Sejarah & Budaya,Jakarta Barat
Selamat Datang Monument,4.7,8630.0,-6.1950051,106.8230439,https://www.google.com/maps/place/Selamat+Datang+Monument/data=!4m7!3m6!1s0x2e69f69fabaf5407:0x243d1c0d2c810c99!8m2!3d-6.1950051!4d106.8230439!16s%2Fm%2F0g9tpx8!19sChIJB1Svq5_2aS4RmQyBLA0cPSQ,Sejarah & Budaya,Jakarta Selatan
Selamat Datang Monument,4.7,8630.0,-6.1950051,106.8230439,https://www.google.com/maps/place/Selamat+Datang+Monument/data=!4m7!3m6!1s0x2e69f69fabaf5407:0x243d1c0d2c810c99!8m2!3d-6.1950051!4d106.8230439!16s%2Fm%2F0g9tpx8!19sChIJB1Svq5_2aS4RmQyBLA0cPSQ,Sejarah & Budaya,Jakarta Timur
Al-Makmur Mosque,4.6,202.0,-6.1642969,106.842782,https://www.google.com/maps/place/Al-Makmur+Mosque/data=!4m7!3m6!1s0x2e69f5b86a96eb3f:0xbd2b66e2a5662e46!8m2!3d-6.1642969!4d106.842782!16s%2Fm%2F0136zjcx!19sChIJP-uWarj1aS4RRi5mpeJmK70,Sejarah & Budaya,Jakarta Pusat
Museum Tragedi 12 Mei 1998 Universitas Trisakti,4.9,31.0,-6.1682444,106.789387,https://www.google.com/maps/place/Museum+Tragedi+12+Mei+1998+Universitas+Trisakti/data=!4m7!3m6!1s0x2e69f65cc7803f87:0x88d929cdefb1b6fc!8m2!3d-6.1682444!4d106.789387!16s%2Fm%2F010lq873!19sChIJhz-Ax1z2aS4R_Lax780p2Yg,Sejarah & Budaya,Jakarta Barat
Selamat Datang Monument,4.7,8630.0,-6.1950051,106.8230439,https://www.google.com/maps/place/Selamat+Datang+Monument/data=!4m7!3m6!1s0x2e69f69fabaf5407:0x243d1c0d2c810c99!8m2!3d-6.1950051!4d106.8230439!16s%2Fm%2F0g9tpx8!19sChIJB1Svq5_2aS4RmQyBLA0cPSQ,Sejarah & Budaya,Jakarta Pusat
Selamat Datang Monument,4.7,8630.0,-6.1950051,106.8230439,https://www.google.com/maps/place/Selamat+Datang+Monument/data=!4m7!3m6!1s0x2e69f69fabaf5407:0x243d1c0d2c810c99!8m2!3d-6.1950051!4d106.8230439!16s%2Fm%2F0g9tpx8!19sChIJB1Svq5_2aS4RmQyBLA0cPSQ,Sejarah & Budaya,Jakarta Barat
Martha Tiahahu Literacy Park,4.6,6140.0,-6.2433125,106.798726,https://www.google.com/maps/place/Martha+Tiahahu+Literacy+Park/data=!4m7!3m6!1s0x2e69f16b8b5cbc63:0xcf6106d08b36f129!8m2!3d-6.2433125!4d106.798726!16s%2Fg%2F11bzym8k29!19sChIJY7xci2vxaS4RKfE2i9AGYc8,Sejarah & Budaya,Jakarta Selatan
National Museum of Indonesia,4.7,19956.0,-6.1764021,106.8215901,https://www.google.com/maps/place/National+Museum+of+Indonesia/data=!4m7!3m6!1s0x2e69f5d4b571f28b:0xa41541566f6058ed!8m2!3d-6.1764021!4d106.8215901!16s%2Fm%2F027vccr!19sChIJi_JxtdT1aS4R7Vhgb1ZBFaQ,Sejarah & Budaya,Jakarta Timur
National Museum of Indonesia,4.7,19956.0,-6.1764021,106.8215901,https://www.google.com/maps/place/National+Museum+of+Indonesia/data=!4m7!3m6!1s0x2e69f5d4b571f28b:0xa41541566f6058ed!8m2!3d-6.1764021!4d106.8215901!16s%2Fm%2F027vccr!19sChIJi_JxtdT1aS4R7Vhgb1ZBFaQ,Sejarah & Budaya,Jakarta Pusat
National Museum of Indonesia,4.7,19956.0,-6.1764021,106.8215901,https://www.google.com/maps/place/National+Museum+of+Indonesia/data=!4m7!3m6!1s0x2e69f5d4b571f28b:0xa41541566f6058ed!8m2!3d-6.1764021!4d106.8215901!16s%2Fm%2F027vccr!19sChIJi_JxtdT1aS4R7Vhgb1ZBFaQ,Sejarah & Budaya,Jakarta Selatan
Gedung Cipta Niaga Kota Tua,4.5,101.0,-6.1345167,106.811949,https://www.google.com/maps/place/Gedung+Cipta+Niaga+Kota+Tua/data=!4m7!3m6!1s0x2e6a1dff34cd07b5:0xc07de1805bc12fc2!8m2!3d-6.1345167!4d106.811949!16s%2Fg%2F11c37nck5w!19sChIJtQfNNP8dai4Rwi_BW4DhfcA,Sejarah & Budaya,Jakarta Barat
National Museum of Indonesia,4.7,19956.0,-6.1764021,106.8215901,https://www.google.com/maps/place/National+Museum+of+Indonesia/data=!4m7!3m6!1s0x2e69f5d4b571f28b:0xa41541566f6058ed!8m2!3d-6.1764021!4d106.8215901!16s%2Fm%2F027vccr!19sChIJi_JxtdT1aS4R7Vhgb1ZBFaQ,Sejarah & Budaya,Jakarta Barat
Harry Darsono Museum,4.6,63.0,-6.2889386,106.8019779,https://www.google.com/maps/place/Harry+Darsono+Museum/data=!4m7!3m6!1s0x2e69f1ef66d984ab:0xdb29db1d5d1abe53!8m2!3d-6.2889386!4d106.8019779!16s%2Fg%2F11h_7bbqbb!19sChIJq4TZZu_xaS4RU74aXR3bKds,Sejarah & Budaya,Jakarta Selatan
Kartini Statue,4.9,16.0,-6.1754624,106.829378,https://www.google.com/maps/place/Kartini+Statue/data=!4m7!3m6!1s0x2e69f5d2a6f59d17:0x127366682dd10af4!8m2!3d-6.1754624!4d106.829378!16s%2Fg%2F11f77c2gwy!19sChIJF531ptL1aS4R9ArRLWhmcxI,Sejarah & Budaya,Jakarta Pusat
Martha Tiahahu Literacy Park,4.6,6140.0,-6.2433125,106.798726,https://www.google.com/maps/place/Martha+Tiahahu+Literacy+Park/data=!4m7!3m6!1s0x2e69f16b8b5cbc63:0xcf6106d08b36f129!8m2!3d-6.2433125!4d106.798726!16s%2Fg%2F11bzym8k29!19sChIJY7xci2vxaS4RKfE2i9AGYc8,Sejarah & Budaya,Jakarta Barat
Museum Katedral Jakarta,4.8,203.0,-6.1688037,106.833355,https://www.google.com/maps/place/Museum+Katedral+Jakarta/data=!4m7!3m6!1s0x2e69f524ad0d926d:0xf508add217ff4bca!8m2!3d-6.1688037!4d106.833355!16s%2Fg%2F11gjv6skfh!19sChIJbZINrST1aS4Rykv_F9KtCPU,Sejarah & Budaya,Jakarta Timur
SCBD WEEKLAND,4.7,100.0,-6.2272153,106.8089834,https://www.google.com/maps/place/SCBD+WEEKLAND/data=!4m7!3m6!1s0x2e69f1858a42680d:0xcecb7b80c8cd8568!8m2!3d-6.2272153!4d106.8089834!16s%2Fg%2F11tp4wc4hg!19sChIJDWhCioXxaS4RaIXNyIB7y84,Sejarah & Budaya,Jakarta Selatan
Pasar Seni Ancol,4.4,5491.0,-6.1264924,106.8389517,https://www.google.com/maps/place/Pasar+Seni+Ancol/data=!4m7!3m6!1s0x2e6a1e184ec2b8f3:0x8fd2a44632896350!8m2!3d-6.1264924!4d106.8389517!16s%2Fg%2F11f4v4yjc0!19sChIJ87jCThgeai4RUGOJMkak0o8,Sejarah & Budaya,Jakarta Pusat
National Archives Building of the Republic of Indonesia,4.5,2653.0,-6.153799,106.816719,https://www.google.com/maps/place/National+Archives+Building+of+the+Republic+of+Indonesia/data=!4m7!3m6!1s0x2e69f60a61cc63fd:0xc4900f5e5c303c06!8m2!3d-6.153799!4d106.816719!16s%2Fg%2F120n2ksc!19sChIJ_WPMYQr2aS4RBjwwXF4PkMQ,Sejarah & Budaya,Jakarta Barat
Jakarta History Museum,4.6,22827.0,-6.1351828,106.8133498,https://www.google.com/maps/place/Jakarta+History+Museum/data=!4m7!3m6!1s0x2e6a1dff4292a57d:0x12f0032d678c0745!8m2!3d-6.1351828!4d106.8133498!16s%2Fm%2F05b1p21!19sChIJfaWSQv8dai4RRQeMZy0D8BI,Sejarah & Budaya,Jakarta Timur
National Archives Building of the Republic of Indonesia,4.5,2653.0,-6.153799,106.816719,https://www.google.com/maps/place/National+Archives+Building+of+the+Republic+of+Indonesia/data=!4m7!3m6!1s0x2e69f60a61cc63fd:0xc4900f5e5c303c06!8m2!3d-6.153799!4d106.816719!16s%2Fg%2F120n2ksc!19sChIJ_WPMYQr2aS4RBjwwXF4PkMQ,Sejarah & Budaya,Jakarta Selatan
National Archives Building of the Republic of Indonesia,4.5,2653.0,-6.153799,106.816719,https://www.google.com/maps/place/National+Archives+Building+of+the+Republic+of+Indonesia/data=!4m7!3m6!1s0x2e69f60a61cc63fd:0xc4900f5e5c303c06!8m2!3d-6.153799!4d106.816719!16s%2Fg%2F120n2ksc!19sChIJ_WPMYQr2aS4RBjwwXF4PkMQ,Sejarah & Budaya,Jakarta Pusat
Museum Katedral Jakarta,4.8,203.0,-6.1688037,106.833355,https://www.google.com/maps/place/Museum+Katedral+Jakarta/data=!4m7!3m6!1s0x2e69f524ad0d926d:0xf508add217ff4bca!8m2!3d-6.1688037!4d106.833355!16s%2Fg%2F11gjv6skfh!19sChIJbZINrST1aS4Rykv_F9KtCPU,Sejarah & Budaya,Jakarta Pusat
Museum Katedral Jakarta,4.8,203.0,-6.1688037,106.833355,https://www.google.com/maps/place/Museum+Katedral+Jakarta/data=!4m7!3m6!1s0x2e69f524ad0d926d:0xf508add217ff4bca!8m2!3d-6.1688037!4d106.833355!16s%2Fg%2F11gjv6skfh!19sChIJbZINrST1aS4Rykv_F9KtCPU,Sejarah & Budaya,Jakarta Selatan
Kota Tua 3 - kantor pos,4.7,97.0,-6.1337757,106.8139136,https://www.google.com/maps/place/Kota+Tua+3+-+kantor+pos/data=!4m7!3m6!1s0x2e6a1d21255060c9:0xd13f57d9e6b51553!8m2!3d-6.1337757!4d106.8139136!16s%2Fg%2F11j6zwgv7m!19sChIJyWBQJSEdai4RUxW15tlXP9E,Sejarah & Budaya,Jakarta Barat
Jakarta History Museum,4.6,22827.0,-6.1351828,106.8133498,https://www.google.com/maps/place/Jakarta+History+Museum/data=!4m7!3m6!1s0x2e6a1dff4292a57d:0x12f0032d678c0745!8m2!3d-6.1351828!4d106.8133498!16s%2Fm%2F05b1p21!19sChIJfaWSQv8dai4RRQeMZy0D8BI,Sejarah & Budaya,Jakarta Pusat
Jakarta History Museum,4.6,22827.0,-6.1351828,106.8133498,https://www.google.com/maps/place/Jakarta+History+Museum/data=!4m7!3m6!1s0x2e6a1dff4292a57d:0x12f0032d678c0745!8m2!3d-6.1351828!4d106.8133498!16s%2Fm%2F05b1p21!19sChIJfaWSQv8dai4RRQeMZy0D8BI,Sejarah & Budaya,Jakarta Selatan
Museum Katedral Jakarta,4.8,203.0,-6.1688037,106.833355,https://www.google.com/maps/place/Museum+Katedral+Jakarta/data=!4m7!3m6!1s0x2e69f524ad0d926d:0xf508add217ff4bca!8m2!3d-6.1688037!4d106.833355!16s%2Fg%2F11gjv6skfh!19sChIJbZINrST1aS4Rykv_F9KtCPU,Sejarah & Budaya,Jakarta Barat
Jakarta History Museum,4.6,22827.0,-6.1351828,106.8133498,https://www.google.com/maps/place/Jakarta+History+Museum/data=!4m7!3m6!1s0x2e6a1dff4292a57d:0x12f0032d678c0745!8m2!3d-6.1351828!4d106.8133498!16s%2Fm%2F05b1p21!19sChIJfaWSQv8dai4RRQeMZy0D8BI,Sejarah & Budaya,Jakarta Barat
Pancasila Fire Monument TMII,4.5,286.0,-6.3020747,106.8898802,https://www.google.com/maps/place/Pancasila+Fire+Monument+TMII/data=!4m7!3m6!1s0x2e69ed5de7387721:0x9e77587c9ca37c37!8m2!3d-6.3020747!4d106.8898802!16s%2Fg%2F11c4514rx2!19sChIJIXc4513taS4RN3yjnHxYd54,Sejarah & Budaya,Jakarta Timur
Lapangan Banteng Park,4.7,29625.0,-6.170555,106.8350378,https://www.google.com/maps/place/Lapangan+Banteng+Park/data=!4m7!3m6!1s0x2e69f5cbff32cf03:0xc0f7ede65818fc6d!8m2!3d-6.170555!4d106.8350378!16s%2Fg%2F1hb_h2wc5!19sChIJA88y_8v1aS4RbfwYWObt98A,Sejarah & Budaya,Jakarta Pusat
Lapangan Banteng Park,4.7,29625.0,-6.170555,106.8350378,https://www.google.com/maps/place/Lapangan+Banteng+Park/data=!4m7!3m6!1s0x2e69f5cbff32cf03:0xc0f7ede65818fc6d!8m2!3d-6.170555!4d106.8350378!16s%2Fg%2F1hb_h2wc5!19sChIJA88y_8v1aS4RbfwYWObt98A,Sejarah & Budaya,Jakarta Selatan
Lapangan Banteng Park,4.7,29625.0,-6.170555,106.8350378,https://www.google.com/maps/place/Lapangan+Banteng+Park/data=!4m7!3m6!1s0x2e69f5cbff32cf03:0xc0f7ede65818fc6d!8m2!3d-6.170555!4d106.8350378!16s%2Fg%2F1hb_h2wc5!19sChIJA88y_8v1aS4RbfwYWObt98A,Sejarah & Budaya,Jakarta Barat
Museum Perangko Indonesia,4.4,460.0,-6.3041841,106.9017725,https://www.google.com/maps/place/Museum+Perangko+Indonesia/data=!4m7!3m6!1s0x2e69ed50f32ca43d:0x9421f13946ad5819!8m2!3d-6.3041841!4d106.9017725!16s%2Fg%2F121z_7hx!19sChIJPaQs81DtaS4RGVitRjnxIZQ,Sejarah & Budaya,Jakarta Timur
Museum Sejarah Nasional,4.5,375.0,-6.1755407,106.8272002,https://www.google.com/maps/place/Museum+Sejarah+Nasional/data=!4m7!3m6!1s0x2e69f5d33deb916b:0x806340061cd97f8e!8m2!3d-6.1755407!4d106.8272002!16s%2Fg%2F11c1lj7swy!19sChIJa5HrPdP1aS4Rjn_ZHAZAY4A,Sejarah & Budaya,Jakarta Pusat
Museum Sejarah Nasional,4.5,375.0,-6.1755407,106.8272002,https://www.google.com/maps/place/Museum+Sejarah+Nasional/data=!4m7!3m6!1s0x2e69f5d33deb916b:0x806340061cd97f8e!8m2!3d-6.1755407!4d106.8272002!16s%2Fg%2F11c1lj7swy!19sChIJa5HrPdP1aS4Rjn_ZHAZAY4A,Sejarah & Budaya,Jakarta Timur
Museum Sejarah Nasional,4.5,375.0,-6.1755407,106.8272002,https://www.google.com/maps/place/Museum+Sejarah+Nasional/data=!4m7!3m6!1s0x2e69f5d33deb916b:0x806340061cd97f8e!8m2!3d-6.1755407!4d106.8272002!16s%2Fg%2F11c1lj7swy!19sChIJa5HrPdP1aS4Rjn_ZHAZAY4A,Sejarah & Budaya,Jakarta Selatan
Museum of Fine Art and Ceramics,4.5,3843.0,-6.1342598,106.814552,https://www.google.com/maps/place/Museum+of+Fine+Art+and+Ceramics/data=!4m7!3m6!1s0x2e6a1dff428f242d:0x3ebe306f6e4f4a6b!8m2!3d-6.1342598!4d106.814552!16s%2Fm%2F09v74pc!19sChIJLSSPQv8dai4Ra0pPbm8wvj4,Sejarah & Budaya,Jakarta Barat
Museum Perangko Indonesia,4.4,460.0,-6.3041841,106.9017725,https://www.google.com/maps/place/Museum+Perangko+Indonesia/data=!4m7!3m6!1s0x2e69ed50f32ca43d:0x9421f13946ad5819!8m2!3d-6.3041841!4d106.9017725!16s%2Fg%2F121z_7hx!19sChIJPaQs81DtaS4RGVitRjnxIZQ,Sejarah & Budaya,Jakarta Selatan
Museum Sejarah Nasional,4.5,375.0,-6.1755407,106.8272002,https://www.google.com/maps/place/Museum+Sejarah+Nasional/data=!4m7!3m6!1s0x2e69f5d33deb916b:0x806340061cd97f8e!8m2!3d-6.1755407!4d106.8272002!16s%2Fg%2F11c1lj7swy!19sChIJa5HrPdP1aS4Rjn_ZHAZAY4A,Sejarah & Budaya,Jakarta Barat
Kebangkitan Nasional Museum,4.7,1.0,-6.178692,106.8380024,https://www.google.com/maps/place/Kebangkitan+Nasional+Museum/data=!4m7!3m6!1s0x2e69f434569482cb:0xf63185f968d128ab!8m2!3d-6.178692!4d106.8380024!16s%2Fm%2F04drtbj!19sChIJy4KUVjT0aS4RqyjRaPmFMfY,Sejarah & Budaya,Jakarta Utara
Tugu Tani,4.5,6637.0,-6.183216,106.834975,https://www.google.com/maps/place/Tugu+Tani/data=!4m7!3m6!1s0x2e69f431375d796f:0x9ae7376b6201908!8m2!3d-6.183216!4d106.834975!16s%2Fm%2F0h7mfxn!19sChIJb3ldNzH0aS4RCBkgtnZzrgk,Sejarah & Budaya,Jakarta Pusat
Museum Sumpah Pemuda,4.7,1297.0,-6.1838388,106.8430507,https://www.google.com/maps/place/Museum+Sumpah+Pemuda/data=!4m7!3m6!1s0x2e69f448497eae29:0x6f890df278af3c65!8m2!3d-6.1838388!4d106.8430507!16s%2Fg%2F120qwcwd!19sChIJKa5-SUj0aS4RZTyvePINiW8,Sejarah & Budaya,Jakarta Utara
Antara Gallery of Photo Journalism,4.5,172.0,-6.1654855,106.8340188,https://www.google.com/maps/place/Antara+Gallery+of+Photo+Journalism/data=!4m7!3m6!1s0x2e69f5cf64ddae31:0xcafb10be4cdaf3c8!8m2!3d-6.1654855!4d106.8340188!16s%2Fg%2F1s0547pjv!19sChIJMa7dZM_1aS4RyPPaTL4Q-8o,Sejarah & Budaya,Jakarta Utara
Perkampungan Budaya Betawi,4.6,350.0,-6.3408172,106.8224076,https://www.google.com/maps/place/Perkampungan+Budaya+Betawi/data=!4m7!3m6!1s0x2e69ec2b47b739eb:0x5b400e05cf156916!8m2!3d-6.3408172!4d106.8224076!16s%2Fg%2F11dzx7f60k!19sChIJ6zm3RyvsaS4RFmkVzwUOQFs,Sejarah & Budaya,Jakarta Selatan
Tugu Tani,4.5,6637.0,-6.183216,106.834975,https://www.google.com/maps/place/Tugu+Tani/data=!4m7!3m6!1s0x2e69f431375d796f:0x9ae7376b6201908!8m2!3d-6.183216!4d106.834975!16s%2Fm%2F0h7mfxn!19sChIJb3ldNzH0aS4RCBkgtnZzrgk,Sejarah & Budaya,Jakarta Barat
Museum DPR RI,4.5,32.0,-6.210306,106.7997213,https://www.google.com/maps/place/Museum+DPR+RI/data=!4m7!3m6!1s0x2e69f78e29c1ad95:0x1d68da9cf80732f3!8m2!3d-6.210306!4d106.7997213!16s%2Fg%2F11g3xy1r52!19sChIJla3BKY73aS4R8zIH-JzaaB0,Sejarah & Budaya,Jakarta Utara
Wisata Kota Tua Jakarta,4.6,26301.0,-6.1350687,106.8136795,https://www.google.com/maps/place/Wisata+Kota+Tua+Jakarta/data=!4m7!3m6!1s0x2e69ec2a940017ed:0xdfce12d4a0938133!8m2!3d-6.1350687!4d106.8136795!16s%2Fg%2F11d_v9mf_f!19sChIJ7RcAlCrsaS4RM4GToNQSzt8,Sejarah & Budaya,Jakarta Pusat
Taman Mini Indonesia Indah,4.6,173725.0,-6.3044926,106.8893388,https://www.google.com/maps/place/Taman+Mini+Indonesia+Indah/data=!4m7!3m6!1s0x2e69ed50d076a261:0x73127b9ecf2da0c!8m2!3d-6.3044926!4d106.8893388!16zL20vMDhiaHFr!19sChIJYaJ20FDtaS4RDNry7LknMQc,Sejarah & Budaya,Jakarta Utara
Museum Polri,4.6,827.0,-6.2394477,106.8027635,https://www.google.com/maps/place/Museum+Polri/data=!4m7!3m6!1s0x2e69f169ec7f39a5:0xdb4f3d819bd716bd!8m2!3d-6.2394477!4d106.8027635!16s%2Fg%2F12nvp8h49!19sChIJpTl_7GnxaS4RvRbXm4E9T9s,Sejarah & Budaya,Jakarta Utara
Jahit,4.2,471.0,-6.1172803,106.8088648,https://www.google.com/maps/place/Jahit/data=!4m7!3m6!1s0x2e6a1de7adc60bd3:0x883196c9164a9a82!8m2!3d-6.1172803!4d106.8088648!16s%2Fg%2F11fx81r5x3!19sChIJ0wvGrecdai4RgppKFsmWMYg,Sejarah & Budaya,Jakarta Utara
National Gallery of Indonesia,4.7,10696.0,-6.1782951,106.8325683,https://www.google.com/maps/place/National+Gallery+of+Indonesia/data=!4m7!3m6!1s0x2e69f432fb0c95a5:0x5a9cae96473931a8!8m2!3d-6.1782951!4d106.8325683!16s%2Fm%2F0qfpbqv!19sChIJpZUM-zL0aS4RqDE5R5aunFo,Sejarah & Budaya,Jakarta Utara
Ayodia Park - Barito,4.6,5.0,-6.2453376,106.7945996,https://www.google.com/maps/place/Ayodia+Park+-+Barito/data=!4m7!3m6!1s0x2e69f16ccbbd35b9:0x25629aaf4a5042b!8m2!3d-6.2453376!4d106.7945996!16s%2Fg%2F11byz6zj8b!19sChIJuTW9y2zxaS4RKwSl9KopVgI,Alam & Ruang Terbuka,Jakarta Selatan
Ayodia Park - Barito,4.6,5.0,-6.2453376,106.7945996,https://www.google.com/maps/place/Ayodia+Park+-+Barito/data=!4m7!3m6!1s0x2e69f16ccbbd35b9:0x25629aaf4a5042b!8m2!3d-6.2453376!4d106.7945996!16s%2Fg%2F11byz6zj8b!19sChIJuTW9y2zxaS4RKwSl9KopVgI,Alam & Ruang Terbuka,Jakarta Barat
Ayodia Park - Barito,4.6,5.0,-6.2453376,106.7945996,https://www.google.com/maps/place/Ayodia+Park+-+Barito/data=!4m7!3m6!1s0x2e69f16ccbbd35b9:0x25629aaf4a5042b!8m2!3d-6.2453376!4d106.7945996!16s%2Fg%2F11byz6zj8b!19sChIJuTW9y2zxaS4RKwSl9KopVgI,Alam & Ruang Terbuka,Jakarta Timur
Situ Lembang Park,4.6,6818.0,-6.1977797,106.8346416,https://www.google.com/maps/place/Situ+Lembang+Park/data=!4m7!3m6!1s0x514107ef6417075:0xdf97f027bb9bcd42!8m2!3d-6.1977797!4d106.8346416!16s%2Fg%2F11bzq3fvt7!19sChIJdXBB9n4QFAURQs2buyfwl98,Alam & Ruang Terbuka,Jakarta Selatan
Situ Lembang Park,4.6,6818.0,-6.1977797,106.8346416,https://www.google.com/maps/place/Situ+Lembang+Park/data=!4m7!3m6!1s0x514107ef6417075:0xdf97f027bb9bcd42!8m2!3d-6.1977797!4d106.8346416!16s%2Fg%2F11bzq3fvt7!19sChIJdXBB9n4QFAURQs2buyfwl98,Alam & Ruang Terbuka,Jakarta Barat
Situ Lembang Park,4.6,6818.0,-6.1977797,106.8346416,https://www.google.com/maps/place/Situ+Lembang+Park/data=!4m7!3m6!1s0x514107ef6417075:0xdf97f027bb9bcd42!8m2!3d-6.1977797!4d106.8346416!16s%2Fg%2F11bzq3fvt7!19sChIJdXBB9n4QFAURQs2buyfwl98,Alam & Ruang Terbuka,Jakarta Timur
Ramlie Musofa Mosque,4.8,11344.0,-6.146146,106.8712495,https://www.google.com/maps/place/Ramlie+Musofa+Mosque/data=!4m7!3m6!1s0x2e69f570cdea6529:0x1b4883b8bedbee8e!8m2!3d-6.146146!4d106.8712495!16s%2Fg%2F11fhwkr4k0!19sChIJKWXqzXD1aS4Rju7bvriDSBs,Sejarah & Budaya,Jakarta Utara
Prince Diponegoro Monument,4.6,81.0,-6.2002027,106.8323422,https://www.google.com/maps/place/Prince+Diponegoro+Monument/data=!4m7!3m6!1s0x2e69f4171e23e607:0x590ca17101894225!8m2!3d-6.2002027!4d106.8323422!16s%2Fg%2F11d_bhdjfr!19sChIJB-YjHhf0aS4RJUKJAXGhDFk,Sejarah & Budaya,Jakarta Utara
Grand General Dr. A. H. Nasution Memorial Museum,4.8,1232.0,-6.1929612,106.8326645,https://www.google.com/maps/place/Grand+General+Dr.+A.+H.+Nasution+Memorial+Museum/data=!4m7!3m6!1s0x2e69f43c5ee263f3:0x5fc0960b834ecf52!8m2!3d-6.1929612!4d106.8326645!16s%2Fm%2F0cnzlth!19sChIJ82PiXjz0aS4RUs9OgwuWwF8,Sejarah & Budaya,Jakarta Utara
Taman Hutan Kota Tebet,4.8,1313.0,-6.2400781,106.8528222,https://www.google.com/maps/place/Taman+Hutan+Kota+Tebet/data=!4m7!3m6!1s0x2e69f3bcce6d8b39:0x1f37e39d760e6751!8m2!3d-6.2400781!4d106.8528222!16s%2Fg%2F11f_6n5g_7!19sChIJOYttzrzzaS4RUWcOdp3jNx8,Alam & Ruang Terbuka,Jakarta Selatan
Taman Hutan Kota Tebet,4.8,1313.0,-6.2400781,106.8528222,https://www.google.com/maps/place/Taman+Hutan+Kota+Tebet/data=!4m7!3m6!1s0x2e69f3bcce6d8b39:0x1f37e39d760e6751!8m2!3d-6.2400781!4d106.8528222!16s%2Fg%2F11f_6n5g_7!19sChIJOYttzrzzaS4RUWcOdp3jNx8,Alam & Ruang Terbuka,Jakarta Timur
Penjaringan City Forest Park,4.5,3995.0,-6.1329076,106.7837762,https://www.google.com/maps/place/Penjaringan+City+Forest+Park/data=!4m7!3m6!1s0x2e6a1d8857b7c43d:0x346954c528821815!8m2!3d-6.1329076!4d106.7837762!16s%2Fg%2F11b7qqslf6!19sChIJPcS3V4gdai4RFRiCKMVUaTQ,Alam & Ruang Terbuka,Jakarta Barat
Lenteng Agung Kids And Elderly Friendly Park,4.4,1245.0,-6.322885,106.8360167,https://www.google.com/maps/place/Lenteng+Agung+Kids+And+Elderly+Friendly+Park/data=!4m7!3m6!1s0x2e69edc16716df25:0xbc9677a134aca5a9!8m2!3d-6.322885!4d106.8360167!16s%2Fg%2F1yg93kr8p!19sChIJJd8WZ8HtaS4RqaWsNKF3lrw,Alam & Ruang Terbuka,Jakarta Selatan
Tebet Eco Park,4.7,27233.0,-6.2373489,106.8529248,https://www.google.com/maps/place/Tebet+Eco+Park/data=!4m7!3m6!1s0x2e69f36d922448d5:0x83736dbd7ef2b25c!8m2!3d-6.2373489!4d106.8529248!16s%2Fg%2F11fj9k587d!19sChIJ1Ugkkm3zaS4RXLLyfr1tc4M,Alam & Ruang Terbuka,Jakarta Barat
Taman PPA,4.5,192.0,-6.319705,106.897088,https://www.google.com/maps/place/Taman+PPA/data=!4m7!3m6!1s0x2e69ed38ff1e36d3:0x47867f71c99a5335!8m2!3d-6.319705!4d106.897088!16s%2Fg%2F11cn6prf9r!19sChIJ0zYe_zjtaS4RNVOayXF_hkc,Alam & Ruang Terbuka,Jakarta Timur
Masjid Al Alam,4.7,1144.0,-6.0942991,106.9598452,https://www.google.com/maps/place/Masjid+Al+Alam/data=!4m7!3m6!1s0x2e6a207d930edfe5:0x6efbf2aa9531c707!8m2!3d-6.0942991!4d106.9598452!16s%2Fg%2F11fk3vz608!19sChIJ5d8Ok30gai4RB8cxlary-24,Sejarah & Budaya,Jakarta Utara
Penjaringan City Forest Park,4.5,3995.0,-6.1329076,106.7837762,https://www.google.com/maps/place/Penjaringan+City+Forest+Park/data=!4m7!3m6!1s0x2e6a1d8857b7c43d:0x346954c528821815!8m2!3d-6.1329076!4d106.7837762!16s%2Fg%2F11b7qqslf6!19sChIJPcS3V4gdai4RFRiCKMVUaTQ,Alam & Ruang Terbuka,Jakarta Timur
TUGU HARMONI - JAKARTA,4.6,279.0,-6.167496,106.8210906,https://www.google.com/maps/place/TUGU+HARMONI+-+JAKARTA/data=!4m7!3m6!1s0x2e69f5d775260dab:0xed0eddce26971ead!8m2!3d-6.167496!4d106.8210906!16s%2Fg%2F11c5s_ffpx!19sChIJqw0mddf1aS4RrR6XJs7dDu0,Sejarah & Budaya,Jakarta Utara
Taman Walikota Jakarta Barat,4.5,47.0,-6.1851128,106.7384451,https://www.google.com/maps/place/Taman+Walikota+Jakarta+Barat/data=!4m7!3m6!1s0x2e69f7dba80b0e61:0xc43acda175b406f5!8m2!3d-6.1851128!4d106.7384451!16s%2Fg%2F11lgddykr_!19sChIJYQ4LqNv3aS4R9Qa0daHNOsQ,Alam & Ruang Terbuka,Jakarta Barat
Sangga Buana,4.5,500.0,-6.3152278,106.7787835,https://www.google.com/maps/place/Sangga+Buana/data=!4m7!3m6!1s0x2e69f0b8f8900c09:0x5361ff056ba0dbc1!8m2!3d-6.3152278!4d106.7787835!16s%2Fg%2F1hm2_jn28!19sChIJCQyQ-LjwaS4RwdugawX_YVM,Alam & Ruang Terbuka,Jakarta Selatan
Kerinci Park,4.6,685.0,-6.2390756,106.7878346,https://www.google.com/maps/place/Kerinci+Park/data=!4m7!3m6!1s0x2e69f11603ad5f5f:0x55e97cb4545045fc!8m2!3d-6.2390756!4d106.7878346!16s%2Fg%2F11b6__mqq6!19sChIJX1-tAxbxaS4R_EVQVLR86VU,Alam & Ruang Terbuka,Jakarta Timur
"MURI, Museum Rekor-Dunia Indonesia ( Jaya Suprana Institute )",4.7,120.0,-6.1444617,106.9017562,"https://www.google.com/maps/place/MURI,+Museum+Rekor-Dunia+Indonesia+%28+Jaya+Suprana+Institute+%29/data=!4m7!3m6!1s0x2e69f540550e66b3:0x55150bc3babfde1!8m2!3d-6.1444617!4d106.9017562!16s%2Fg%2F12hqrydml!19sChIJs2YOVUD1aS4R4f2rO7xQUQU",Sejarah & Budaya,Jakarta Utara
Kerinci Park,4.6,685.0,-6.2390756,106.7878346,https://www.google.com/maps/place/Kerinci+Park/data=!4m7!3m6!1s0x2e69f11603ad5f5f:0x55e97cb4545045fc!8m2!3d-6.2390756!4d106.7878346!16s%2Fg%2F11b6__mqq6!19sChIJX1-tAxbxaS4R_EVQVLR86VU,Alam & Ruang Terbuka,Jakarta Selatan
Tebet Eco Park,4.7,27233.0,-6.2373489,106.8529248,https://www.google.com/maps/place/Tebet+Eco+Park/data=!4m7!3m6!1s0x2e69f36d922448d5:0x83736dbd7ef2b25c!8m2!3d-6.2373489!4d106.8529248!16s%2Fg%2F11fj9k587d!19sChIJ1Ugkkm3zaS4RXLLyfr1tc4M,Alam & Ruang Terbuka,Jakarta Timur
Tomang Park,4.1,197.0,-6.1718165,106.8081974,https://www.google.com/maps/place/Tomang+Park/data=!4m7!3m6!1s0x2e69f67c9de33e75:0xdd083e12a297af65!8m2!3d-6.1718165!4d106.8081974!16s%2Fg%2F11c3j5cw95!19sChIJdT7jnXz2aS4RZa-XohI-CN0,Alam & Ruang Terbuka,Jakarta Barat
Tebet Eco Park,4.7,27233.0,-6.2373489,106.8529248,https://www.google.com/maps/place/Tebet+Eco+Park/data=!4m7!3m6!1s0x2e69f36d922448d5:0x83736dbd7ef2b25c!8m2!3d-6.2373489!4d106.8529248!16s%2Fg%2F11fj9k587d!19sChIJ1Ugkkm3zaS4RXLLyfr1tc4M,Alam & Ruang Terbuka,Jakarta Selatan
Taman Wisata Alam Angke,4.3,16410.0,-6.1063389,106.7366437,https://www.google.com/maps/place/Taman+Wisata+Alam+Angke/data=!4m10!3m9!1s0x2e6a1d2589502ba3:0xc39c90629ab16290!5m2!4m1!1i2!8m2!3d-6.1063389!4d106.7366437!16s%2Fg%2F1pzpnxtjc!19sChIJoytQiSUdai4RkGKxmmKQnMM,Sejarah & Budaya,Jakarta Utara
Hutan Kota Kembangan Utara,4.5,456.0,-6.1702753,106.7510598,https://www.google.com/maps/place/Hutan+Kota+Kembangan+Utara/data=!4m7!3m6!1s0x2e69f7a317372e6f:0x2858b9460144a295!8m2!3d-6.1702753!4d106.7510598!16s%2Fg%2F11c1wwfx9t!19sChIJby43F6P3aS4RlaJEAUa5WCg,Alam & Ruang Terbuka,Jakarta Barat
Museum Taman Prasasti,4.6,1963.0,-6.172452,106.8197689,https://www.google.com/maps/place/Museum+Taman+Prasasti/data=!4m7!3m6!1s0x2e69f5d5d956ed99:0x90970858c9aba297!8m2!3d-6.172452!4d106.8197689!16s%2Fm%2F0b777jc!19sChIJme1W2dX1aS4Rl6KryVgIl5A,Sejarah & Budaya,Jakarta Utara
RPTRA Taman Matoa Jagakarsa,4.4,522.0,-6.3291943,106.8233042,https://www.google.com/maps/place/RPTRA+Taman+Matoa+Jagakarsa/data=!4m7!3m6!1s0x2e69edd9c276d797:0x18e9f5c95c24483f!8m2!3d-6.3291943!4d106.8233042!16s%2Fg%2F11c6dz9jbx!19sChIJl9d2wtntaS4RP0gkXMn16Rg,Alam & Ruang Terbuka,Jakarta Selatan
Taman Ranggon Wijaya Kusuma,4.7,1037.0,-6.344512,106.907367,https://www.google.com/maps/place/Taman+Ranggon+Wijaya+Kusuma/data=!4m7!3m6!1s0x2e69edcb5a7c637d:0x2405b5cb849bd022!8m2!3d-6.344512!4d106.907367!16s%2Fg%2F11j7hsx4j2!19sChIJfWN8WsvtaS4RItCbhMu1BSQ,Alam & Ruang Terbuka,Jakarta Timur
Cattleya City Park,4.5,6640.0,-6.1819063,106.7944073,https://www.google.com/maps/place/Cattleya+City+Park/data=!4m7!3m6!1s0x2e69f68b3ee6be5d:0x9557708125db83f6!8m2!3d-6.1819063!4d106.7944073!16s%2Fg%2F11b7kkt0f2!19sChIJXb7mPov2aS4R9oPbJYFwV5U,Alam & Ruang Terbuka,Jakarta Selatan
Maritime Museum of Indonesia,4.8,270.0,-6.1075925,106.8833997,https://www.google.com/maps/place/Maritime+Museum+of+Indonesia/data=!4m7!3m6!1s0x2e6a1fb8bc9401af:0x23e7402a23599a92!8m2!3d-6.1075925!4d106.8833997!16s%2Fg%2F11f15llwyn!19sChIJrwGUvLgfai4RkppZIypA5yM,Sejarah & Budaya,Jakarta Utara
RPTRA Kalijodo,4.4,863.0,-6.1426169,106.7900105,https://www.google.com/maps/place/RPTRA+Kalijodo/data=!4m7!3m6!1s0x2e69f796b0c7665d:0x904de1bb50b3541!8m2!3d-6.1426169!4d106.7900105!16s%2Fg%2F11jny1vz2r!19sChIJXWbHsJb3aS4RQTULtRveBAk,Alam & Ruang Terbuka,Jakarta Barat
Taman Melati,4.6,499.0,-6.3345302,106.9003501,https://www.google.com/maps/place/Taman+Melati/data=!4m7!3m6!1s0x2e69ed262823fd3b:0x644392c5825be266!8m2!3d-6.3345302!4d106.9003501!16s%2Fg%2F11c561b5t7!19sChIJO_0jKCbtaS4RZuJbgsWSQ2Q,Alam & Ruang Terbuka,Jakarta Timur
Jakarta Maritime Museum,4.5,3453.0,-6.1267804,106.8081425,https://www.google.com/maps/place/Jakarta+Maritime+Museum/data=!4m7!3m6!1s0x2e69f5e451849b79:0x9decbe492b2ded46!8m2!3d-6.1267804!4d106.8081425!16s%2Fm%2F09v54ky!19sChIJeZuEUeT1aS4RRu0tK0m-7J0,Sejarah & Budaya,Jakarta Utara
Ancol Taman Impian,4.6,47745.0,-6.1253087,106.8335381,https://www.google.com/maps/place/Ancol+Taman+Impian/data=!4m7!3m6!1s0x2e69f47477efd771:0x85206a9cc2c15358!8m2!3d-6.1253087!4d106.8335381!16zL20vMDg5OWR6!19sChIJcdfvd3T0aS4RWFPBwpxqIIU,Alam & Ruang Terbuka,Jakarta Selatan
Jakarta AQuarium Safari,4.7,19731.0,-6.174911,106.7903274,https://www.google.com/maps/place/Jakarta+AQuarium+Safari/data=!4m7!3m6!1s0x2e69f7fb7dfbb9a3:0xde7bf875b06023b1!8m2!3d-6.174911!4d106.7903274!16s%2Fg%2F11qq01l_3l!19sChIJo7n7ffv3aS4RsSNgsHX4e94,Alam & Ruang Terbuka,Jakarta Barat
Taman Kelapa,4.5,669.0,-6.240906,106.9369118,https://www.google.com/maps/place/Taman+Kelapa/data=!4m7!3m6!1s0x2e698ce9c8935eef:0x1e63d5fb04d342f5!8m2!3d-6.240906!4d106.9369118!16s%2Fg%2F11cn6kn6__!19sChIJ716TyOmMaS4R9ULTBPvVYx4,Alam & Ruang Terbuka,Jakarta Timur
Luar Batang Holy Mosque,4.8,1005.0,-6.1238406,106.8066587,https://www.google.com/maps/place/Luar+Batang+Holy+Mosque/data=!4m7!3m6!1s0x2e6a1de570431941:0x712477b90a66c76a!8m2!3d-6.1238406!4d106.8066587!16s%2Fg%2F11c6zkk_fh!19sChIJQRlDcOUdai4RasdmCrl3JHE,Sejarah & Budaya,Jakarta Utara
Gedung Candra Naya,4.6,927.0,-6.1473838,106.8151338,https://www.google.com/maps/place/Gedung+Candra+Naya/data=!4m7!3m6!1s0x2e69f6086774201f:0x6cf9dd9e365ae9c8!8m2!3d-6.1473838!4d106.8151338!16s%2Fg%2F11c1p58hxk!19sChIJHyB0Zwj2aS4RyOlaNp7d-Ww,Sejarah & Budaya,Jakarta Utara
MOJA Museum,4.5,2470.0,-6.2175929,106.8031745,https://www.google.com/maps/place/MOJA+Museum/data=!4m7!3m6!1s0x2e69f164a95e665d:0xc3c0973316bd0c5c!8m2!3d-6.2175929!4d106.8031745!16s%2Fg%2F11gk4yrmdj!19sChIJXWZeqWTxaS4RXAy9FjOXwMM,Sejarah & Budaya,Jakarta Utara
Taman Langsat,4.6,5959.0,-6.2440393,106.7929958,https://www.google.com/maps/place/Taman+Langsat/data=!4m7!3m6!1s0x2e69f1133032c457:0xa967421005527fa3!8m2!3d-6.2440393!4d106.7929958!16s%2Fg%2F11bzypggx7!19sChIJV8QyMBPxaS4Ro39SBRBCZ6k,Alam & Ruang Terbuka,Jakarta Selatan
Taman UT AHEME,4.3,216.0,-6.2277083,106.9218971,https://www.google.com/maps/place/Taman+UT+AHEME/data=!4m7!3m6!1s0x2e698cb0ef6fb741:0xc100477e9ee68708!8m2!3d-6.2277083!4d106.9218971!16s%2Fg%2F11cjh_rzcv!19sChIJQbdv77CMaS4RCIfmnn5HAME,Alam & Ruang Terbuka,Jakarta Timur
Taman Langsat,4.6,5959.0,-6.2440393,106.7929958,https://www.google.com/maps/place/Taman+Langsat/data=!4m7!3m6!1s0x2e69f1133032c457:0xa967421005527fa3!8m2!3d-6.2440393!4d106.7929958!16s%2Fg%2F11bzypggx7!19sChIJV8QyMBPxaS4Ro39SBRBCZ6k,Alam & Ruang Terbuka,Jakarta Barat
Taman Wisata Alam Angke,4.3,16410.0,-6.1063389,106.7366437,https://www.google.com/maps/place/Taman+Wisata+Alam+Angke/data=!4m10!3m9!1s0x2e6a1d2589502ba3:0xc39c90629ab16290!5m2!4m1!1i2!8m2!3d-6.1063389!4d106.7366437!16s%2Fg%2F1pzpnxtjc!19sChIJoytQiSUdai4RkGKxmmKQnMM,Alam & Ruang Terbuka,Jakarta Barat
Lighting Art Kota Tua Jakarta,4.7,336.0,-6.1343897,106.8125029,https://www.google.com/maps/place/Lighting+Art+Kota+Tua+Jakarta/data=!4m7!3m6!1s0x2e6a1d0053a6bab1:0xb32f2e4280b12bac!8m2!3d-6.1343897!4d106.8125029!16s%2Fg%2F11xfgw4wqx!19sChIJsbqmUwAdai4RrCuxgEIuL7M,Sejarah & Budaya,Jakarta Utara
Tanjung Park,4.4,1243.0,-6.302435,106.83917,https://www.google.com/maps/place/Tanjung+Park/data=!4m7!3m6!1s0x2e69edf4ed5f91eb:0xa47ca7d6b29df015!8m2!3d-6.302435!4d106.83917!16s%2Fg%2F11b6nccpfj!19sChIJ65Ff7fTtaS4RFfCdstanfKQ,Alam & Ruang Terbuka,Jakarta Selatan
Museum Bank Indonesia,4.7,11347.0,-6.1371066,106.8129846,https://www.google.com/maps/place/Museum+Bank+Indonesia/data=!4m7!3m6!1s0x2e69f601eb6b390f:0x6dd4776b240168a3!8m2!3d-6.1371066!4d106.8129846!16s%2Fg%2F112yfv12s!19sChIJDzlr6wH2aS4Ro2gBJGt31G0,Sejarah & Budaya,Jakarta Utara
Apung Park,4.6,1343.0,-6.3518445,106.890131,https://www.google.com/maps/place/Apung+Park/data=!4m7!3m6!1s0x2e69edcc290608c1:0xc50a055e5f861efd!8m2!3d-6.3518445!4d106.890131!16s%2Fg%2F11g_rw6cyj!19sChIJwQgGKcztaS4R_R6GX14FCsU,Alam & Ruang Terbuka,Jakarta Timur
Museum Mandiri,4.7,2693.0,-6.1386855,106.8129104,https://www.google.com/maps/place/Museum+Mandiri/data=!4m7!3m6!1s0x2e69f601907b7e9b:0x8b5da2cbdd9a964!8m2!3d-6.1386855!4d106.8129104!16s%2Fm%2F0r4mnv1!19sChIJm357kAH2aS4RZKnZvSzatQg,Sejarah & Budaya,Jakarta Utara
Ciganjur's Central Park,4.7,267.0,-6.3382727,106.8100362,https://www.google.com/maps/place/Ciganjur%27s+Central+Park/data=!4m7!3m6!1s0x2e69efd431301873:0xf1b08e8deda8db33!8m2!3d-6.3382727!4d106.8100362!16s%2Fg%2F11lpfrkws5!19sChIJcxgwMdTvaS4RM9uo7Y2OsPE,Alam & Ruang Terbuka,Jakarta Selatan
Tribeca Park,4.8,10603.0,-6.1772515,106.7904697,https://www.google.com/maps/place/Tribeca+Park/data=!4m7!3m6!1s0x2e69f65f7b0f0739:0xf771f6dc512bd1a1!8m2!3d-6.1772515!4d106.7904697!16s%2Fg%2F11cs17j29b!19sChIJOQcPe1_2aS4RodErUdz2cfc,Alam & Ruang Terbuka,Jakarta Barat
Mini Zoo,,,-6.2331717,106.9038522,https://www.google.com/maps/place/Mini+Zoo/data=!4m7!3m6!1s0x2e69f300172bb72f:0x85342c0886feb422!8m2!3d-6.2331717!4d106.9038522!16s%2Fg%2F11z0zv8tjw!19sChIJL7crFwDzaS4RIrT-hggsNIU,Alam & Ruang Terbuka,Jakarta Timur
Jakarta Bird Land,4.7,846.0,-6.12576,106.8434791,https://www.google.com/maps/place/Jakarta+Bird+Land/data=!4m7!3m6!1s0x2e6a1f82a1321b0b:0x568665f610cdffda!8m2!3d-6.12576!4d106.8434791!16s%2Fg%2F11jygcs8mf!19sChIJCxsyoYIfai4R2v_NEPZlhlY,Sejarah & Budaya,Jakarta Utara
Taman Sepat,4.4,1855.0,-6.3059635,106.8324509,https://www.google.com/maps/place/Taman+Sepat/data=!4m7!3m6!1s0x2e69edf0e18e5f47:0xf287f574a02af9be!8m2!3d-6.3059635!4d106.8324509!16s%2Fg%2F11byttpwy1!19sChIJR1-O4fDtaS4RvvkqoHT1h_I,Alam & Ruang Terbuka,Jakarta Selatan
Mataram City Park,4.6,3715.0,-6.2328196,106.7995376,https://www.google.com/maps/place/Mataram+City+Park/data=!4m7!3m6!1s0x2e69f146b787a2c1:0xd04ecd93726c3e77!8m2!3d-6.2328196!4d106.7995376!16s%2Fg%2F11b7q6zxk0!19sChIJwaKHt0bxaS4Rdz5scpPNTtA,Alam & Ruang Terbuka,Jakarta Barat
Monumen Ondel-Ondel Kemayoran,4.6,1845.0,-6.1600032,106.8517335,https://www.google.com/maps/place/Monumen+Ondel-Ondel+Kemayoran/data=!4m7!3m6!1s0x2e69f5bc9f696f35:0xe7c4db3a2934e272!8m2!3d-6.1600032!4d106.8517335!16s%2Fg%2F11cm0hhd68!19sChIJNW9pn7z1aS4RcuI0KTrbxOc,Sejarah & Budaya,Jakarta Utara
Mataram City Park,4.6,3715.0,-6.2328196,106.7995376,https://www.google.com/maps/place/Mataram+City+Park/data=!4m7!3m6!1s0x2e69f146b787a2c1:0xd04ecd93726c3e77!8m2!3d-6.2328196!4d106.7995376!16s%2Fg%2F11b7q6zxk0!19sChIJwaKHt0bxaS4Rdz5scpPNTtA,Alam & Ruang Terbuka,Jakarta Selatan
Waduk Setu Cipayung,4.4,603.0,-6.3108228,106.9152734,https://www.google.com/maps/place/Waduk+Setu+Cipayung/data=!4m7!3m6!1s0x2e69934f830cd31f:0xce4be07f2bf80267!8m2!3d-6.3108228!4d106.9152734!16s%2Fg%2F11j11s4d5l!19sChIJH9MMg0-TaS4RZwL4K3_gS84,Alam & Ruang Terbuka,Jakarta Timur
Cattleya City Park,4.5,6640.0,-6.1819063,106.7944073,https://www.google.com/maps/place/Cattleya+City+Park/data=!4m7!3m6!1s0x2e69f68b3ee6be5d:0x9557708125db83f6!8m2!3d-6.1819063!4d106.7944073!16s%2Fg%2F11b7kkt0f2!19sChIJXb7mPov2aS4R9oPbJYFwV5U,Alam & Ruang Terbuka,Jakarta Timur
Kebon Jeruk Park (Tree House),4.5,16.0,-6.1909805,106.7687367,https://www.google.com/maps/place/Kebon+Jeruk+Park+%28Tree+House%29/data=!4m7!3m6!1s0x2e69f73e30091727:0xff6f913d3b3c4286!8m2!3d-6.1909805!4d106.7687367!16s%2Fg%2F11h9bgrcxs!19sChIJJxcJMD73aS4RhkI8Oz2Rb_8,Alam & Ruang Terbuka,Jakarta Barat
Dufan Ancol,4.6,79201.0,-6.1253116,106.8335432,https://www.google.com/maps/place/Dufan+Ancol/data=!4m7!3m6!1s0x2e6a1e1a80420c57:0x275b93253d2232e3!8m2!3d-6.1253116!4d106.8335432!16s%2Fm%2F0b65fpr!19sChIJVwxCgBoeai4R4zIiPSWTWyc,Sejarah & Budaya,Jakarta Utara
Taman Anggrek Ragunan,4.7,4768.0,-6.3114168,106.8212066,https://www.google.com/maps/place/Taman+Anggrek+Ragunan/data=!4m7!3m6!1s0x2e69edfc7abd128d:0x4b91b44fa1ce0b83!8m2!3d-6.3114168!4d106.8212066!16s%2Fg%2F11b7fhc8r7!19sChIJjRK9evztaS4RgwvOoU-0kUs,Alam & Ruang Terbuka,Jakarta Selatan
Satriamandala Museum,4.6,8644.0,-6.2318286,106.8189439,https://www.google.com/maps/place/Satriamandala+Museum/data=!4m7!3m6!1s0x2e69f3e26d094b9f:0x729cef683bf31572!8m2!3d-6.2318286!4d106.8189439!16s%2Fm%2F0k0tdcz!19sChIJn0sJbeLzaS4RchXzO2jvnHI,Sejarah & Budaya,Jakarta Utara
Sumenep Park,4.7,80.0,-6.2001496,106.8253902,https://www.google.com/maps/place/Sumenep+Park/data=!4m7!3m6!1s0x2e69f41a26494d4b:0x88f9453ff1c7b92!8m2!3d-6.2001496!4d106.8253902!16s%2Fg%2F11hbr2bcsm!19sChIJS01JJhr0aS4Rknsc_1OUjwg,Alam & Ruang Terbuka,Jakarta Timur
Palm Bay Water Park,4.1,3614.0,-6.1384725,106.7099831,https://www.google.com/maps/place/Palm+Bay+Water+Park/data=!4m7!3m6!1s0x2e6a02a793f5571d:0xdb98118113de1ba0!8m2!3d-6.1384725!4d106.7099831!16s%2Fg%2F11fzwqw9c0!19sChIJHVf1k6cCai4RoBveE4ERmNs,Alam & Ruang Terbuka,Jakarta Barat
Gedung Stovia,4.7,200.0,-6.1787581,106.8379666,https://www.google.com/maps/place/Gedung+Stovia/data=!4m7!3m6!1s0x2e69f43456e0f95d:0x794f439480aea4ee!8m2!3d-6.1787581!4d106.8379666!16s%2Fg%2F1pzrm43pz!19sChIJXfngVjT0aS4R7qSugJRDT3k,Sejarah & Budaya,Jakarta Utara
Taman Langsat,4.6,5959.0,-6.2440393,106.7929958,https://www.google.com/maps/place/Taman+Langsat/data=!4m7!3m6!1s0x2e69f1133032c457:0xa967421005527fa3!8m2!3d-6.2440393!4d106.7929958!16s%2Fg%2F11bzypggx7!19sChIJV8QyMBPxaS4Ro39SBRBCZ6k,Alam & Ruang Terbuka,Jakarta Timur
Puring Park,4.5,3139.0,-6.2413693,106.7886198,https://www.google.com/maps/place/Puring+Park/data=!4m7!3m6!1s0x2e69f115d4bf8f39:0xb3f2569069745bb4!8m2!3d-6.2413693!4d106.7886198!16s%2Fg%2F11c1nbbrm5!19sChIJOY-_1BXxaS4RtFt0aZBW8rM,Alam & Ruang Terbuka,Jakarta Selatan
Tribeca Park,4.8,10603.0,-6.1772515,106.7904697,https://www.google.com/maps/place/Tribeca+Park/data=!4m7!3m6!1s0x2e69f65f7b0f0739:0xf771f6dc512bd1a1!8m2!3d-6.1772515!4d106.7904697!16s%2Fg%2F11cs17j29b!19sChIJOQcPe1_2aS4RodErUdz2cfc,Alam & Ruang Terbuka,Jakarta Selatan
Taman Waduk Pluit,4.4,9427.0,-6.1137292,106.7950497,https://www.google.com/maps/place/Taman+Waduk+Pluit/data=!4m7!3m6!1s0x2e6a1dc06cff36a7:0xc94812c8a867e479!8m2!3d-6.1137292!4d106.7950497!16s%2Fg%2F11bzsh2ltd!19sChIJpzb_bMAdai4ReeRnqMgSSMk,Alam & Ruang Terbuka,Jakarta Barat
Faunaland Ancol,4.5,3934.0,-6.1243125,106.8358125,https://www.google.com/maps/place/Faunaland+Ancol/data=!4m7!3m6!1s0x2e6a1e19a0ac5539:0x5a612616c1438e94!8m2!3d-6.1243125!4d106.8358125!16s%2Fg%2F11clggsdl5!19sChIJOVWsoBkeai4RlI5DwRYmYVo,Sejarah & Budaya,Jakarta Utara
Museum of Textile,4.5,3135.0,-6.1882117,106.8097432,https://www.google.com/maps/place/Museum+of+Textile/data=!4m7!3m6!1s0x2e69f69b22a0585d:0xdc276556f2689b10!8m2!3d-6.1882117!4d106.8097432!16s%2Fm%2F09v8mnv!19sChIJXVigIpv2aS4REJto8lZlJ9w,Sejarah & Budaya,Jakarta Utara
Taman baru,4.4,249.0,-6.181491,106.941674,https://www.google.com/maps/place/Taman+baru/data=!4m7!3m6!1s0x2e698b171b7b902b:0xe110539a2c5edde3!8m2!3d-6.181491!4d106.941674!16s%2Fg%2F11rjmx2sr2!19sChIJK5B7GxeLaS4R491eLJpTEOE,Alam & Ruang Terbuka,Jakarta Timur
Arjuna Wijaya Statue,4.6,10437.0,-6.1800296,106.8227781,https://www.google.com/maps/place/Arjuna+Wijaya+Statue/data=!4m7!3m6!1s0x2e69f42b928d4a61:0x56ed17c8310b69bb!8m2!3d-6.1800296!4d106.8227781!16s%2Fg%2F11b6x_swt5!19sChIJYUqNkiv0aS4Ru2kLMcgX7VY,Sejarah & Budaya,Jakarta Utara
Tangkuban Perahu Park,4.5,4646.0,-6.2076521,106.8352437,https://www.google.com/maps/place/Tangkuban+Perahu+Park/data=!4m7!3m6!1s0x2e69f40e096d5be3:0x10014e518362e4dd!8m2!3d-6.2076521!4d106.8352437!16s%2Fg%2F11b7xsf2hd!19sChIJ41ttCQ70aS4R3eRig1FOARA,Alam & Ruang Terbuka,Jakarta Barat
Rumah Si Pitung Situs Museum Kebaharian Jakarta,4.5,1819.0,-6.0969637,106.9588413,https://www.google.com/maps/place/Rumah+Si+Pitung+Situs+Museum+Kebaharian+Jakarta/data=!4m7!3m6!1s0x2e6a2056223ee0cd:0xd3f94174199a878d!8m2!3d-6.0969637!4d106.9588413!16s%2Fg%2F11flq7k0m7!19sChIJzeA-IlYgai4RjYeaGXRB-dM,Sejarah & Budaya,Jakarta Utara
Waduk Brigif,4.5,451.0,-6.3461015,106.7980427,https://www.google.com/maps/place/Waduk+Brigif/data=!4m7!3m6!1s0x2e69ef609af2178d:0x1b0d4518fd58d4cb!8m2!3d-6.3461015!4d106.7980427!16s%2Fg%2F11ts39ypyy!19sChIJjRfymmDvaS4Ry9RY_RhFDRs,Alam & Ruang Terbuka,Jakarta Selatan
Gedung Joang '45,4.6,1870.0,-6.1860641,106.8365002,https://www.google.com/maps/place/Gedung+Joang+%2745/data=!4m7!3m6!1s0x2e69f439e42506f1:0x5b47d4d83d25b9dd!8m2!3d-6.1860641!4d106.8365002!16s%2Fg%2F120yrqgp!19sChIJ8QYl5Dn0aS4R3bklPdjUR1s,Sejarah & Budaya,Jakarta Utara
Taman Waduk Pluit,4.4,9427.0,-6.1137292,106.7950497,https://www.google.com/maps/place/Taman+Waduk+Pluit/data=!4m7!3m6!1s0x2e6a1dc06cff36a7:0xc94812c8a867e479!8m2!3d-6.1137292!4d106.7950497!16s%2Fg%2F11bzsh2ltd!19sChIJpzb_bMAdai4ReeRnqMgSSMk,Alam & Ruang Terbuka,Jakarta Selatan
National Monument,4.6,121661.0,-6.1753083,106.8271106,https://www.google.com/maps/place/National+Monument/data=!4m7!3m6!1s0x2e69f5d2e764b12d:0x3d2ad6e1e0e9bcc8!8m2!3d-6.1753083!4d106.8271106!16zL20vMDNxN2hz!19sChIJLbFk59L1aS4RyLzp4OHWKj0,Sejarah & Budaya,Jakarta Utara
Taman Cempaka,4.6,195.0,-6.3271624,106.9052553,https://www.google.com/maps/place/Taman+Cempaka/data=!4m7!3m6!1s0x2e69ed007daff71f:0x1d92948c5a19e036!8m2!3d-6.3271624!4d106.9052553!16s%2Fg%2F11lnn9hgd9!19sChIJH_evfQDtaS4RNuAZWoyUkh0,Alam & Ruang Terbuka,Jakarta Timur
Sasmita Loka Ahmad Yani Museum,4.8,1040.0,-6.2045797,106.8366143,https://www.google.com/maps/place/Sasmita+Loka+Ahmad+Yani+Museum/data=!4m7!3m6!1s0x2e69f4123755eccb:0x5b8c2f700730e22c!8m2!3d-6.2045797!4d106.8366143!16s%2Fm%2F0crgqrd!19sChIJy-xVNxL0aS4RLOIwB3AvjFs,Sejarah & Budaya,Jakarta Utara
Taman Joglo,3.9,149.0,-6.2198381,106.7319988,https://www.google.com/maps/place/Taman+Joglo/data=!4m7!3m6!1s0x2e69f753295dac2b:0x8a76f9ffbeb1309!8m2!3d-6.2198381!4d106.7319988!16s%2Fg%2F11f2j0_zjk!19sChIJK6xdKVP3aS4RCRPr-59vpwg,Alam & Ruang Terbuka,Jakarta Barat
Cathedral of Our Lady of the Assumption,4.8,14955.0,-6.1692383,106.8333758,https://www.google.com/maps/place/Cathedral+of+Our+Lady+of+the+Assumption/data=!4m7!3m6!1s0x2e69f5cef86e21ad:0x3ecfda74692fc79!8m2!3d-6.1692383!4d106.8333758!16s%2Fm%2F02r7yts!19sChIJrSFu-M71aS4RefySRqf97AM,Sejarah & Budaya,Jakarta Utara
Taman Sambas Asri,4.6,162.0,-6.24824,106.7976319,https://www.google.com/maps/place/Taman+Sambas+Asri/data=!4m7!3m6!1s0x2e69f1db10f70e0d:0x5be5607319e620b6!8m2!3d-6.24824!4d106.7976319!16s%2Fg%2F11rmrd0bq8!19sChIJDQ73ENvxaS4RtiDmGXNg5Vs,Alam & Ruang Terbuka,Jakarta Selatan
Museum MH. Thamrin,4.6,936.0,-6.194015,106.8456889,https://www.google.com/maps/place/Museum+MH.+Thamrin/data=!4m7!3m6!1s0x2e69f441a1426bfb:0x280b1e02323d46d0!8m2!3d-6.194015!4d106.8456889!16s%2Fg%2F1218f644!19sChIJ-2tCoUH0aS4R0EY9MgIeCyg,Sejarah & Budaya,Jakarta Utara
Tangkuban Perahu Park,4.5,4646.0,-6.2076521,106.8352437,https://www.google.com/maps/place/Tangkuban+Perahu+Park/data=!4m7!3m6!1s0x2e69f40e096d5be3:0x10014e518362e4dd!8m2!3d-6.2076521!4d106.8352437!16s%2Fg%2F11b7xsf2hd!19sChIJ41ttCQ70aS4R3eRig1FOARA,Alam & Ruang Terbuka,Jakarta Selatan
Suropati Park,4.6,22210.0,-6.199387,106.8326333,https://www.google.com/maps/place/Suropati+Park/data=!4m7!3m6!1s0x2e69f416e4052ef9:0x8b3359cdbfba5a81!8m2!3d-6.199387!4d106.8326333!16s%2Fg%2F120z1syk!19sChIJ-S4F5Bb0aS4RgVq6v81ZM4s,Sejarah & Budaya,Jakarta Utara
TMB Pulir,4.1,14.0,-6.1832002,106.7179587,https://www.google.com/maps/place/TMB+Pulir/data=!4m7!3m6!1s0x2e69f9b0c6ec6e09:0x81b9a25e3ebc8a26!8m2!3d-6.1832002!4d106.7179587!16s%2Fg%2F11sg2lmm2n!19sChIJCW7sxrD5aS4RJoq8Pl6iuYE,Alam & Ruang Terbuka,Jakarta Barat
Taman Jati Cimel,4.7,215.0,-6.2559708,106.9051142,https://www.google.com/maps/place/Taman+Jati+Cimel/data=!4m7!3m6!1s0x2e69f30050a86229:0x4b2740749ecc8bf4!8m2!3d-6.2559708!4d106.9051142!16s%2Fg%2F11vsz59821!19sChIJKWKoUADzaS4R9IvMnnRAJ0s,Alam & Ruang Terbuka,Jakarta Timur
Taman Fatahillah,4.6,29605.0,-6.134669,106.8132041,https://www.google.com/maps/place/Taman+Fatahillah/data=!4m7!3m6!1s0x2e6a1dff3f8f5fed:0xf2536e698fceab32!8m2!3d-6.134669!4d106.8132041!16s%2Fg%2F11bvvyzv1l!19sChIJ7V-PP_8dai4RMqvOj2luU_I,Sejarah & Budaya,Jakarta Utara
Ria Rio Park,4.4,2223.0,-6.170877,106.87779,https://www.google.com/maps/place/Ria+Rio+Park/data=!4m7!3m6!1s0x2e69f51cbefd708b:0x7240d3e983345aad!8m2!3d-6.170877!4d106.87779!16s%2Fg%2F11bzypshqf!19sChIJi3D9vhz1aS4RrVo0g-nTQHI,Alam & Ruang Terbuka,Jakarta Selatan
RPTRA Meruya Utara,4.4,1033.0,-6.2010498,106.7373018,https://www.google.com/maps/place/RPTRA+Meruya+Utara/data=!4m7!3m6!1s0x2e69f742ea4ca781:0xed96d2e07ccdd957!8m2!3d-6.2010498!4d106.7373018!16s%2Fg%2F11bzs__0rn!19sChIJgadM6kL3aS4RV9nNfODSlu0,Alam & Ruang Terbuka,Jakarta Barat
Ria Rio Park,4.4,2223.0,-6.170877,106.87779,https://www.google.com/maps/place/Ria+Rio+Park/data=!4m7!3m6!1s0x2e69f51cbefd708b:0x7240d3e983345aad!8m2!3d-6.170877!4d106.87779!16s%2Fg%2F11bzypshqf!19sChIJi3D9vhz1aS4RrVo0g-nTQHI,Alam & Ruang Terbuka,Jakarta Barat
Taman Wisata Lebah,4.6,1007.0,-6.3668755,106.8958019,https://www.google.com/maps/place/Taman+Wisata+Lebah/data=!4m7!3m6!1s0x2e69ecbb6eab144f:0xad7b65e4e05d94f4!8m2!3d-6.3668755!4d106.8958019!16s%2Fg%2F11kxdvsjzn!19sChIJTxSrbrvsaS4R9JRd4ORle60,Alam & Ruang Terbuka,Jakarta Timur
Menteng Park,4.5,21164.0,-6.1964087,106.8293106,https://www.google.com/maps/place/Menteng+Park/data=!4m7!3m6!1s0x2e69f422b00ee429:0xa28d5c5a0efbe12e!8m2!3d-6.1964087!4d106.8293106!16s%2Fg%2F11byz6zj8g!19sChIJKeQOsCL0aS4RLuH7DlpcjaI,Alam & Ruang Terbuka,Jakarta Barat
Taman Impian Jaya Ancol,4.6,5784.0,-6.1173332,106.8579951,https://www.google.com/maps/place/Taman+Impian+Jaya+Ancol/data=!4m7!3m6!1s0x2e6a1e36f7d35d57:0x7185c13d06491a96!8m2!3d-6.1173332!4d106.8579951!16s%2Fg%2F11cjk2c8t1!19sChIJV13T9zYeai4RlhpJBj3BhXE,Sejarah & Budaya,Jakarta Utara
"Situ Gintung 2 Restaurant, Water Park, Outbond,",4.4,6679.0,-6.3097675,106.7624834,"https://www.google.com/maps/place/Situ+Gintung+2+Restaurant,+Water+Park,+Outbond,/data=!4m7!3m6!1s0x2e69f02c4a2752ff:0xd27fca03967a378f!8m2!3d-6.3097675!4d106.7624834!16s%2Fg%2F11b5k75c8_!19sChIJ_1InSizwaS4Rjzd6lgPKf9I",Alam & Ruang Terbuka,Jakarta Selatan
Mausoleum OG Khouw,4.4,21.0,-6.1979206,106.8042989,https://www.google.com/maps/place/Mausoleum+OG+Khouw/data=!4m7!3m6!1s0x2e69f6bd66eb7ff7:0x9da7d7b350ec4946!8m2!3d-6.1979206!4d106.8042989!16s%2Fg%2F11c6c8r320!19sChIJ93_rZr32aS4RRknsULPXp50,Sejarah & Budaya,Jakarta Utara
Tabebuya Park,4.5,3878.0,-6.3278759,106.8101775,https://www.google.com/maps/place/Tabebuya+Park/data=!4m7!3m6!1s0x2e69ee70e17029f3:0xb02b26059ecf31a!8m2!3d-6.3278759!4d106.8101775!16s%2Fg%2F1q5bkk6vf!19sChIJ8ylw4XDuaS4RGvPsWWCyAgs,Alam & Ruang Terbuka,Jakarta Barat
Playparq Kemang,4.4,1304.0,-6.2628045,106.8239821,https://www.google.com/maps/place/Playparq+Kemang/data=!4m7!3m6!1s0x2e69f180f4f7503b:0x62057defbe6adac9!8m2!3d-6.2628045!4d106.8239821!16s%2Fg%2F1ttl0wwq!19sChIJO1D39IDxaS4Rydpqvu99BWI,Alam & Ruang Terbuka,Jakarta Selatan
Cibugary Farm - Wisata Edukasi Cibugary,4.6,776.0,-6.356969,106.906393,https://www.google.com/maps/place/Cibugary+Farm+-+Wisata+Edukasi+Cibugary/data=!4m7!3m6!1s0x2e69ecca1d79d3d3:0xc998bd9e30f544a0!8m2!3d-6.356969!4d106.906393!16s%2Fg%2F11cjhzgj8r!19sChIJ09N5HcrsaS4RoET1MJ69mMk,Alam & Ruang Terbuka,Jakarta Timur
"Musium "" Oud Uitkijkpost "" Bahari, Nautical Museum",4.6,645.0,-6.1274086,106.8090563,"https://www.google.com/maps/place/Musium+%22+Oud+Uitkijkpost+%22+Bahari,+Nautical+Museum/data=!4m7!3m6!1s0x2e6a1d350cc5d2eb:0x2feb4f9f60a3003!8m2!3d-6.1274086!4d106.8090563!16s%2Fg%2F11ghs35wbt!19sChIJ69LFDDUdai4RAzAK9vm0_gI",Sejarah & Budaya,Jakarta Utara
